     3.03           OBSERVATION DATA    M (MIXED)           RINEX VERSION / TYPE
cnvtToRINEX 3.05.0  convertToRINEX OPR  27-Apr-18 09:14 UTC PGM / RUN BY / DATE 
gfzrnx-1.10-7329    FILE CONVERSION     20180626 074858 UTC COMMENT             
----------------------------------------------------------- COMMENT             
TRACK                                                       MARKER NAME         
TRACK                                                       MARKER NUMBER       
GEODETIC                                                    MARKER TYPE         
lugarcia            UPV                                     OBSERVER / AGENCY   
5042451433          TRIMBLE R8 GNSS3    4.71                REC # / TYPE / VERS 
                    TRM60158.00     NONE                    ANT # / TYPE        
  4929491.0860   -29182.9348  4033729.8557                  APPROX POSITION XYZ 
        0.0000        0.0000        0.0000                  ANTENNA: DELTA H/E/N
     0                                                      RCV CLOCK OFFS APPL 
 18 R01  1 R02 -4 R04  6 R06 -4 R07  5 R08  6 R09 -2 R10 -7 GLONASS SLOT / FRQ #
    R11  0 R12 -1 R16 -1 R17  4 R19  3 R20  2 R21  4 R22 -3 GLONASS SLOT / FRQ #
    R23  3 R24  2                                           GLONASS SLOT / FRQ #
G L2X -0.25000                                              SYS / PHASE SHIFT   
R L2P  0.00000                                              SYS / PHASE SHIFT   
    18                  GPS                                 LEAP SECONDS        
DBHZ                                                        SIGNAL STRENGTH UNIT
 C1C    0.000 C2P    0.000                                  GLONASS COD/PHS/BIS 
E    6 C1X C8X L1X L8X S1X S8X                              SYS / # / OBS TYPES 
G   12 C1C C2W C2X C5X L1C L2W L2X L5X S1C S2W S2X S5X      SYS / # / OBS TYPES 
R    6 C1C C2P L1C L2P S1C S2P                              SYS / # / OBS TYPES 
    48                                                      # OF SATELLITES     
   E01    62    62    62    62    62    62                  PRN / # OF OBS      
   E03   174   174   174   174   174   174                  PRN / # OF OBS      
   E04    51    51    51    51    51    51                  PRN / # OF OBS      
   E07   809   809   809   809   809   809                  PRN / # OF OBS      
   E08   433   433   433   433   433   433                  PRN / # OF OBS      
   E12   385   385   385   385   385   385                  PRN / # OF OBS      
   E19   427   427   427   427   427   427                  PRN / # OF OBS      
   E26   735   735   735   735   735   735                  PRN / # OF OBS      
   E30   339   339   339   339   339   339                  PRN / # OF OBS      
   G01   525   509   520   521   521   509   520   521   525PRN / # OF OBS      
         509   520   521                                    PRN / # OF OBS      
   G02   468   468               468   468               468PRN / # OF OBS      
         468                                                PRN / # OF OBS      
   G03   592   575   587   588   588   575   587   588   592PRN / # OF OBS      
         575   587   588                                    PRN / # OF OBS      
   G05   303   302   302         302   302   302         303PRN / # OF OBS      
         302   302                                          PRN / # OF OBS      
   G06   629   628   628   628   628   628   628   628   629PRN / # OF OBS      
         628   628   628                                    PRN / # OF OBS      
   G07   492   492   492         492   492   492         492PRN / # OF OBS      
         492   492                                          PRN / # OF OBS      
   G08   237   217   232   232   232   217   232   232   237PRN / # OF OBS      
         217   232   232                                    PRN / # OF OBS      
   G09   733   733   733   733   733   733   733   733   733PRN / # OF OBS      
         733   733   733                                    PRN / # OF OBS      
   G11   397   387               394   387               397PRN / # OF OBS      
         387                                                PRN / # OF OBS      
   G13   181   179               179   179               181PRN / # OF OBS      
         179                                                PRN / # OF OBS      
   G14   307   297               306   297               307PRN / # OF OBS      
         297                                                PRN / # OF OBS      
   G17   522   522   522         522   522   522         522PRN / # OF OBS      
         522   522                                          PRN / # OF OBS      
   G18   398   375               395   375               398PRN / # OF OBS      
         375                                                PRN / # OF OBS      
   G19   479   479               479   479               479PRN / # OF OBS      
         479                                                PRN / # OF OBS      
   G22   510   502               509   502               510PRN / # OF OBS      
         502                                                PRN / # OF OBS      
   G23   653   629               651   629               653PRN / # OF OBS      
         629                                                PRN / # OF OBS      
   G27    51    41    47    48    48    41    47    48    51PRN / # OF OBS      
          41    47    48                                    PRN / # OF OBS      
   G28   327   314               326   314               327PRN / # OF OBS      
         314                                                PRN / # OF OBS      
   G30   391   391   391   391   391   391   391   391   391PRN / # OF OBS      
         391   391   391                                    PRN / # OF OBS      
   G31    15           8          10           8          15PRN / # OF OBS      
                 8                                          PRN / # OF OBS      
   G32   175   175   175   175   175   175   175   175   175PRN / # OF OBS      
         175   175   175                                    PRN / # OF OBS      
   R01   370   370   370   370   370   370                  PRN / # OF OBS      
   R02    72    72    72    72    72    72                  PRN / # OF OBS      
   R04   100   100   100   100   100   100                  PRN / # OF OBS      
   R06   501         501         501                        PRN / # OF OBS      
   R07   681   679   681   679   681   679                  PRN / # OF OBS      
   R08   618   618   618   618   618   618                  PRN / # OF OBS      
   R09   283   281   283   281   283   281                  PRN / # OF OBS      
   R10   366   366   366   366   366   366                  PRN / # OF OBS      
   R11   248   248   248   248   248   248                  PRN / # OF OBS      
   R12    96          96          96                        PRN / # OF OBS      
   R16   163   163   163   163   163   163                  PRN / # OF OBS      
   R17   181   181   181   181   181   181                  PRN / # OF OBS      
   R19    51    50    51    50    51    50                  PRN / # OF OBS      
   R20   285   285   285   284   285   285                  PRN / # OF OBS      
   R21   519   519   519   519   519   519                  PRN / # OF OBS      
   R22   527   527   527   527   527   527                  PRN / # OF OBS      
   R23   434   434   434   434   434   434                  PRN / # OF OBS      
   R24   333   332   333   331   333   332                  PRN / # OF OBS      
    30.000                                                  INTERVAL            
  2018     4    26    21    49   30.0000000     GPS         TIME OF FIRST OBS   
  2018     4    27     5    47    0.0000000     GPS         TIME OF LAST OBS    
                                                            END OF HEADER      
> 2018 04 26 21 49 30.0000000  0 13
G01  20927444.961 8  20927450.094 6  20927449.508 8  20927448.938 8 109974445.803 8  85694413.638 6  85694408.642 8  82123804.424 8        48.200          40.800          48.600          53.700
G03  22006140.648 7  22006145.855 6  22006146.441 7  22006146.344 8 115642937.454 7  90111491.844 6  90111486.832 7  86356837.024 8        47.600          37.700          47.500          50.700
G08  20623251.086 8  20623255.852 7  20623256.180 8  20623255.105 8 108375881.463 8  84448789.385 7  84448785.389 8  80930081.191 8        51.700          42.700          49.600          53.800
G11  20389418.703 7  20389419.945 6                                 107147117.154 7  83491265.289 6                                        46.400          38.400
G14  22569596.063 5  22569599.219 3                                 118603978.400 5  92418734.443 3                                        35.900          20.100
G18  20097270.781 8  20097273.363 6                                 105611866.624 8  82294973.924 6                                        49.600          40.200
G22  20785987.297 8  20785987.121 6                                 109231098.493 8  85115141.364 6                                        49.100          40.400
G27  23003289.711 7  23003294.160 5  23003294.688 7  23003294.469 8 120883072.070 7  94194645.967 5  94194643.963 7  90269862.755 8        43.900          33.500          45.200          49.900
G28  23298820.906 6  23298822.594 4                                 122436127.472 6  95404781.781 4                                        41.500          27.200
G32  22908435.031 7  22908439.402 5  22908439.320 7  22908438.480 8 120384612.817 7  93806230.202 5  93806228.194 7  89897632.097 8        45.200          34.000          46.000          50.000
R04  21400373.898 7  21400377.043 7 114598029.033 7  89131802.525 7        45.800          46.000
R20  19655279.219 7  19655284.770 7 105105606.850 7  81748807.885 7        43.800          47.300
R21  22035232.328 7  22035236.398 7 117914882.204 7  91711650.962 7        45.700          43.600
> 2018 04 26 21 50 00.0000000  0 18
E01  27763200.422 6  27763203.988 8 145896606.787 6 110369816.092 8        38.800          52.000
E03  25419302.672 7  25419306.309 9 133579338.731 7 101051912.074 9        46.200          54.900
E08  21866278.180 8  21866279.254 9 114908066.056 8  86927178.788 9        49.300          58.100
E26  24713303.898 7  24713307.594 8 129869285.702 7  98245287.611 8        43.900          52.500
G01  20914854.453 8  20914859.641 6  20914859.086 8  20914858.543 8 109908283.179 8  85642858.353 6  85642853.350 8  82074397.277 8        48.800          40.700          48.700          53.500
G03  21985317.203 7  21985322.383 6  21985322.340 7  21985323.160 8 115533508.703 7  90026222.700 6  90026217.710 7  86275120.761 8        47.800          37.400          46.300          50.400
G08  20625917.422 8  20625922.258 7  20625922.453 8  20625921.570 9 108389893.107 8  84459707.539 7  84459703.542 8  80940544.419 9        52.400          43.700          50.300          54.000
G11  20376472.734 7  20376474.680 6                                 107079087.330 7  83438255.037 6                                        46.500          38.900
G14  22557886.516 6  22557888.230 3                                 118542438.653 6  92370781.396 3                                        40.400          22.000
G18  20091842.117 8  20091844.527 6                                 105583339.935 8  82272745.327 6                                        49.200          40.300
G22  20773926.266 8  20773926.309 6                                 109167717.621 8  85065753.688 6                                        48.800          40.500
G27  23016671.984 7  23016675.848 5  23016675.711 7  23016676.977 8 120953396.189 7  94249443.973 5  94249441.979 7  90322377.497 8        44.100          31.100          42.100          49.300
G28  23288222.125 7  23288224.035 4                                 122380431.879 7  95361382.597 4                                        43.500          28.000
G32  22906350.477 7  22906355.336 5  22906355.203 7  22906354.184 8 120373660.944 7  93797696.270 5  93797694.269 7  89889453.747 8        44.400          34.300          46.100          50.500
R04  21414014.617 7  21414018.477 7 114671073.840 7  89188615.163 7        46.400          46.000
R06  21720327.953 5                 115903744.327 5                        33.300
R20  19646681.141 7  19646686.496 8 105059629.617 7  81713047.823 8        43.600          48.600
R21  22011582.305 7  22011586.535 7 117788325.283 7  91613217.826 7        46.300          42.800
> 2018 04 26 21 50 30.0000000  0 19
E01  27762846.609 6  27762850.402 8 145894748.632 6 110368410.394 8        40.600          52.000
E03  25423447.250 7  25423450.215 9 133601115.871 7 101068386.338 9        45.700          54.900
E08  21854789.875 8  21854790.957 9 114847694.771 8  86881508.313 9        49.900          58.000
E26  24695696.953 7  24695700.637 8 129776760.732 7  98175293.118 8        43.900          52.200
G01  20902632.297 8  20902637.801 6  20902637.496 7  20902636.938 8 109844055.421 8  85592810.752 6  85592805.749 7  82026434.991 8        48.600          41.200          47.500          53.700
G03  21964880.586 8  21964885.758 6  21964886.055 7  21964886.711 8 115426114.568 8  89942538.968 6  89942533.956 7  86194923.850 8        48.300          37.100          45.800          50.900
G08  20629000.672 8  20629005.430 7  20629005.707 8  20629004.977 8 108406093.520 8  84472331.238 7  84472327.242 8  80952642.123 8        52.700          42.600          48.100          53.700
G11  20363920.758 8  20363922.551 6                                 107013124.912 8  83386855.744 6                                        48.800          39.300
G14  22546591.250 6  22546593.113 4                                 118483082.758 6  92324530.004 4                                        40.600          24.200
G18  20086799.070 8  20086801.648 6                                 105556838.563 8  82252094.910 6                                        48.800          39.600
G22  20762270.023 7  20762269.770 6                                 109106462.982 7  85018022.805 6                                        46.600          39.900
G27  23030421.930 7  23030426.660 5  23030426.711 7  23030426.910 8 121025653.300 7  94305748.190 5  94305746.186 7  90376335.703 8        44.500          31.000          43.600          48.900
G28  23278042.430 7  23278044.781 4                                 122326939.255 7  95319700.031 4                                        43.000          27.900
G32  22904698.039 7  22904703.516 5  22904703.242 7  22904701.773 8 120364978.991 7  93790931.124 5  93790929.120 7  89882970.459 8        44.400          33.800          46.600          49.600
R04  21428058.773 7  21428062.297 7 114746281.399 7  89247109.926 7        46.200          44.700
R06  21693100.109 5                 115758449.538 5                        33.200
R19  21789234.977 5  21789239.188 5 116557608.607 5  90656011.181 5        33.700          34.400
R20  19638487.313 7  19638491.758 8 105015807.009 7  81678963.581 8        44.100          48.300
R21  21988267.063 7  21988271.473 7 117663563.108 7  91516180.621 7        45.400          42.700
> 2018 04 26 21 51 00.0000000  0 19
E01  27762798.398 6  27762801.898 8 145894493.350 6 110368217.275 8        37.700          51.700
E03  25427886.055 7  25427889.168 9 133624441.986 7 101086032.390 9        45.800          54.800
E08  21843607.375 8  21843608.430 9 114788930.243 8  86837053.329 9        49.800          57.900
E26  24678320.773 7  24678324.934 8 129685450.578 7  98106217.610 8        43.700          52.200
G01  20890685.133 8  20890690.773 6  20890690.301 7  20890689.852 8 109781273.348 8  85543889.665 6  85543884.662 7  81979552.287 8        48.800          41.400          47.500          53.800
G03  21944738.508 7  21944743.344 6  21944743.582 7  21944744.355 8 115320266.737 7  89860060.153 6  89860055.155 7  86115881.663 8        47.900          37.000          46.600          50.700
G08  20632406.336 8  20632411.270 7  20632411.793 7  20632410.699 9 108423992.422 8  84486278.427 7  84486274.438 7  80966008.173 9        52.500          42.600          47.800          54.100
G11  20351669.516 8  20351670.625 6                                 106948742.260 8  83336687.456 6                                        49.400          38.800
G14  22535618.773 6  22535620.531 3                                 118425422.938 6  92279600.282 3                                        39.500          22.300
G18  20082048.383 8  20082051.172 6                                 105531873.055 8  82232641.271 6                                        48.600          39.900
G22  20750925.094 7  20750924.676 6                                 109046845.011 7  84971567.256 6                                        46.900          39.800
G27  23044446.703 7  23044452.078 5  23044451.824 7  23044451.625 8 121099352.135 7  94363175.882 5  94363173.882 7  90431370.577 8        45.600          34.700          46.700          49.200
G28  23268189.320 6  23268191.367 4                                 122275161.004 6  95279353.367 4                                        40.800          25.800
G32  22903385.094 7  22903389.750 5  22903389.629 7  22903389.355 8 120358077.175 7  93785553.085 5  93785551.082 7  89877816.501 8        43.800          33.400          46.100          49.900
R04  21442412.938 7  21442416.445 7 114823148.646 7  89306895.554 7        46.800          45.000
R06  21666167.688 5                 115614730.939 5                        33.200
R19  21799304.266 5  21799307.969 5 116611476.071 5  90697908.104 5        31.000          34.500
R20  19630601.367 7  19630606.918 7 104973642.776 7  81646169.176 7        44.300          47.100
R21  21965195.336 7  21965198.918 7 117540099.161 7  91420153.123 7        47.400          43.100
> 2018 04 26 21 51 30.0000000  0 19
E01  27762999.508 6  27763002.887 8 145895549.457 6 110369016.230 8        39.600          52.200
E03  25432563.938 7  25432567.230 9 133649025.296 7 101104629.507 9        45.400          54.800
E08  21832675.227 8  21832676.531 9 114731482.614 8  86793594.573 9        49.400          57.900
E26  24661121.641 7  24661124.875 8 129595065.269 7  98037841.751 8        44.800          52.100
G01  20878958.203 8  20878963.121 6  20878962.715 8  20878962.027 8 109719646.903 8  85495869.075 6  85495864.080 8  81933532.552 8        48.800          41.800          49.100          53.700
G03  21924836.148 8  21924840.824 6  21924840.875 7  21924841.309 8 115215676.014 8  89778560.899 6  89778555.896 7  86037778.213 8        49.100          38.100          47.600          50.800
G08  20636080.414 8  20636085.430 7  20636085.625 8  20636084.273 8 108443299.125 8  84501322.601 7  84501318.604 8  80980425.514 8        52.400          43.400          49.800          53.900
G11  20339663.281 7  20339664.703 6                                 106885650.086 7  83287524.737 6                                        46.300          39.100
G14  22524914.227 6  22524917.109 4                                 118369170.104 6  92235766.947 4                                        41.100          24.800
G18  20077534.422 8  20077536.668 6                                 105508153.252 8  82214158.302 6                                        48.500          39.800
G22  20739836.109 7  20739835.652 6                                 108988573.176 7  84926160.640 6                                        46.800          40.100
G27  23058690.367 7  23058694.336 5  23058694.371 7  23058694.293 8 121174200.691 7  94421499.415 5  94421497.419 7  90487263.972 8        45.700          34.900          46.000          49.100
G28  23258608.102 6  23258610.234 4                                 122224807.507 6  95240116.914 4                                        40.600          28.200
G32  22902354.172 7  22902359.383 5  22902359.684 7  22902359.105 8 120352664.735 7  93781335.586 5  93781333.583 7  89873774.742 8        42.100          31.900          45.100          49.900
R04  21457022.102 7  21457025.113 7 114901375.733 7  89367738.856 7        46.200          45.100
R06  21639475.180 5                 115472296.999 5                        35.000
R19  21809614.953 4  21809617.352 5 116666620.229 4  90740798.002 5        28.300          32.900
R20  19622971.719 7  19622977.555 7 104932843.294 7  81614436.244 7        43.900          47.200
R21  21942311.063 7  21942314.223 7 117417639.930 7  91324907.092 7        47.100          42.800
> 2018 04 26 21 52 00.0000000  0 18
E01  27763410.047 6  27763414.020 8 145897710.164 6 110370650.752 8        38.500          52.000
E03  25437441.867 7  25437444.965 9 133674658.625 7 101124020.954 9        45.200          54.700
E08  21821954.859 8  21821956.086 9 114675146.663 8  86750976.806 9        49.800          57.800
E26  24644058.227 7  24644062.203 8 129505399.526 7  97970010.221 8        43.700          51.800
G01  20867411.883 8  20867416.813 6  20867416.613 8  20867415.832 8 109658970.593 8  85448588.840 6  85448583.836 8  81888222.324 8        51.500          41.800          48.800          53.700
G03  21905133.094 7  21905137.680 6  21905138.254 7  21905138.457 8 115112137.780 7  89697881.765 6  89697876.761 7  85960460.711 8        47.800          37.200          45.400          50.700
G08  20639983.055 8  20639987.594 7  20639988.051 8  20639987.023 8 108463807.083 8  84517302.826 7  84517298.822 8  80995739.896 8        51.400          43.200          50.300          53.800
G11  20327863.742 8  20327865.273 6                                 106823644.515 8  83239208.706 6                                        48.200          39.400
G14  22514438.438 6  22514440.426 3                                 118314120.381 6  92192871.102 3                                        41.600          23.900
G18  20073218.750 8  20073221.512 6                                 105485473.286 8  82196485.604 6                                        49.300          39.600
G22  20728964.531 8  20728963.898 6                                 108931441.312 8  84881642.313 6                                        48.100          40.200
G27  23073112.578 7  23073117.047 5  23073116.973 7  23073116.711 8 121249991.366 7  94480557.065 5  94480555.065 7  90543860.884 8        45.400          34.400          44.800          49.300
G28  23249258.375 7  23249260.090 4                                 122175673.327 7  95201830.530 4                                        43.500          26.400
G32  22901569.531 7  22901573.742 5  22901573.496 7  22901573.230 8 120348535.451 7  93778117.964 5  93778115.960 7  89870691.195 8        45.200          32.800          43.400          49.500
R04  21471844.508 7  21471847.316 7 114980748.764 7  89429473.418 7        45.900          44.800
R06  21612984.648 5                 115330941.644 5                        33.200
R20  19615558.555 7  19615563.703 8 104893201.112 7  81583603.436 8        44.000          48.100
R21  21919574.820 7  21919578.359 7 117295977.876 7  91230281.085 7        46.300          42.800
> 2018 04 26 21 52 30.0000000  0 18
E01  27763997.633 6  27764002.641 8 145900802.727 6 110372990.249 8        38.200          51.700
E03  25442486.836 7  25442489.770 9 133701169.087 7 101144075.931 9        46.200          54.800
E08  21811413.547 8  21811414.887 9 114619751.521 8  86709070.746 9        50.100          57.800
E26  24627100.266 7  24627103.684 8 129416282.393 7  97902593.726 8        44.200          52.200
G01  20856013.750 8  20856018.898 6  20856018.391 7  20856017.922 8 109599073.259 8  85401915.598 6  85401910.595 7  81843493.812 8        49.800          41.700          47.500          53.800
G03  21885598.672 8  21885603.520 6  21885603.496 7  21885604.125 8 115009481.711 8  89617890.045 6  89617885.041 7  85883801.974 8        49.300          38.300          46.100          50.700
G08  20644081.547 8  20644086.191 7  20644086.734 8  20644085.270 8 108485344.383 8  84534085.144 7  84534081.140 8  81011822.946 8        52.300          43.000          48.600          53.400
G11  20316238.977 8  20316240.438 6                                 106762555.203 8  83191606.652 6                                        48.000          38.700
G14  22504158.938 6  22504160.836 3                                 118260103.757 6  92150780.233 3                                        39.100          21.800
G18  20069068.844 8  20069070.867 6                                 105463661.936 8  82179489.748 6                                        48.300          39.900
G22  20718276.617 7  20718276.664 6                                 108875278.718 7  84837879.262 6                                        46.300          40.300
G27  23087681.125 7  23087685.668 5  23087685.719 7  23087685.977 8 121326550.947 7  94540213.882 5  94540211.893 7  90601032.003 8        44.500          33.100          45.400          49.800
G28  23240107.688 7  23240109.391 4                                 122127587.486 7  95164361.039 4                                        43.900          25.700
G32  22900994.805 7  22900999.699 5  22900999.828 7  22900998.602 8 120345517.465 7  93775766.303 5  93775764.302 7  89868437.525 8        44.600          33.300          45.400          48.900
R04  21486847.109 7  21486849.984 7 115061089.012 7  89491960.252 7        45.900          44.200
R06  21586666.484 5                 115190494.169 5                        34.600
R20  19608329.359 7  19608335.078 8 104854543.876 7  81553536.702 8        44.200          48.000
R21  21896956.648 7  21896959.660 6 117174940.678 7  91136141.043 6        45.000          41.700
> 2018 04 26 21 53 00.0000000  0 18
E01  27764737.750 6  27764741.352 8 145904685.786 6 110375927.750 8        37.000          51.800
E03  25447671.461 7  25447674.406 9 133728414.897 7 101164687.216 9        46.400          54.500
E08  21801024.820 8  21801025.973 9 114565157.385 8  86667770.642 9        50.000          58.000
E26  24610219.539 7  24610222.828 8 129327574.073 7  97835486.488 8        44.200          51.700
G01  20844737.383 8  20844742.852 6  20844742.223 7  20844741.402 8 109539814.912 8  85355740.281 6  85355735.277 7  81799242.466 8        51.000          40.900          47.800          53.500
G03  21866204.563 8  21866210.066 6  21866210.262 7  21866210.844 8 114907568.679 8  89538477.302 6  89538472.298 7  85807698.104 8        49.000          38.400          46.700          51.100
G08  20648348.883 8  20648353.973 7  20648354.129 8  20648352.641 8 108507770.416 8  84551559.954 7  84551555.958 8  81028569.649 8        52.400          43.200          48.300          53.500
G11  20304761.789 8  20304763.520 6                                 106702243.280 8  83144610.358 6                                        48.400          38.800
G14  22494050.313 7  22494052.809 4                                 118206981.354 7  92109386.157 4                                        42.000          24.600
G18  20065056.234 8  20065058.703 6                                 105442578.924 8  82163061.433 6                                        49.400          39.400
G22  20707747.594 8  20707747.051 6                                 108819944.525 8  84794761.714 6                                        49.300          39.800
G27  23102369.680 7  23102373.395 5  23102373.637 7  23102373.352 8 121403737.417 7  94600359.209 5  94600357.197 7  90658671.283 8        45.100          32.100          45.300          48.800
G28  23231129.281 7  23231132.406 4                                 122080410.444 7  95127599.722 4                                        42.400          26.500
G32  22900604.750 7  22900610.176 5  22900610.203 7  22900609.316 8 120343470.017 7  93774170.909 5  93774168.906 7  89866908.593 8        43.600          33.100          45.600          49.800
R04  21502003.680 7  21502006.738 7 115142249.652 7  89555085.197 7        46.300          45.500
R06  21560489.477 5                 115050815.890 5                        32.000
R20  19601257.875 7  19601263.152 7 104816730.338 7  81524126.168 7        44.100          47.400
R21  21874427.750 7  21874432.043 7 117054387.348 7  91042377.393 7        46.200          42.700
> 2018 04 26 21 53 30.0000000  0 18
E01  27765612.953 6  27765615.680 8 145909280.486 6 110379403.606 8        38.900          51.800
E03  25452981.094 7  25452984.043 9 133756316.953 7 101185794.956 9        45.700          54.700
E08  21790773.773 8  21790774.926 9 114511287.112 8  86627018.134 9        50.000          58.100
E26  24593402.203 7  24593405.391 8 129239197.361 7  97768630.100 8        43.800          52.300
G01  20833567.523 8  20833573.047 6  20833572.836 8  20833571.773 8 109481118.192 8  85310002.583 6  85309997.579 8  81755410.507 8        49.700          41.300          48.900          53.600
G03  21846937.719 8  21846943.238 6  21846943.449 7  21846943.785 8 114806322.088 8  89459583.859 6  89459578.855 7  85732091.890 8        48.500          37.500          47.000          50.800
G08  20652770.516 8  20652776.113 7  20652776.176 8  20652774.664 8 108531006.350 8  84569665.881 7  84569661.884 8  81045921.159 8        52.700          43.500          50.800          53.400
G11  20293418.422 8  20293420.438 6                                 106642632.584 8  83098160.467 6                                        48.000          38.900
G14  22484097.258 7  22484099.938 4                                 118154677.347 7  92068629.798 4                                        42.600          26.300
G18  20061168.039 8  20061170.516 6                                 105422146.530 8  82147140.090 6                                        49.900          40.200
G22  20697360.781 8  20697360.078 6                                 108765360.906 8  84752229.023 6                                        48.300          39.900
G27  23117162.031 7  23117165.727 5  23117166.000 7  23117165.449 7 121481471.364 7  94660931.114 5  94660929.117 7  90716719.352 7        45.100          31.500          42.700          47.500
G28  23222310.555 7  23222312.316 4                                 122034065.294 7  95091486.614 4                                        43.000          26.000
G32  22900385.750 7  22900390.266 5  22900390.043 7  22900389.461 8 120342314.976 7  93773270.908 5  93773268.909 7  89866046.096 8        44.300          33.400          45.200          50.200
R04  21517297.648 7  21517300.270 7 115224147.323 7  89618783.379 7        46.700          45.100
R06  21534444.945 5                 114911830.433 5                        33.400
R20  19594329.852 7  19594335.539 7 104779683.546 7  81495312.003 7        44.100          47.800
R21  21851975.172 7  21851979.488 7 116934241.098 7  90948930.338 7        46.000          43.200
> 2018 04 26 21 54 00.0000000  0 18
E01  27766608.383 6  27766612.559 8 145914518.319 6 110383365.978 8        38.100          51.700
E03  25458402.547 7  25458405.367 9 133784806.402 7 101207347.032 9        46.000          54.700
E08  21780647.453 8  21780648.723 9 114458073.792 8  86586762.605 9        50.500          58.200
E26  24576634.563 7  24576638.328 8 129151085.388 7  97701973.997 8        44.400          51.700
G01  20822492.109 8  20822497.516 6  20822496.930 8  20822496.008 8 109422915.946 8  85264650.215 6  85264645.227 8  81711947.822 8        51.000          41.700          48.700          53.700
G03  21827785.633 8  21827790.781 6  21827790.996 7  21827791.270 8 114705675.645 8  89381158.083 6  89381153.078 7  85656933.858 8        48.500          37.300          46.200          51.000
G08  20657333.508 8  20657338.773 7  20657339.078 8  20657337.793 8 108554984.077 8  84588349.815 7  84588345.818 8  81063826.605 8        53.200          43.600          50.000          53.500
G11  20282195.422 8  20282197.410 6                                 106583656.778 8  83052205.307 6                                        48.200          39.400
G14  22474286.750 7  22474289.523 4                                 118103125.519 7  92028459.546 4                                        42.000          27.400
G18  20057391.156 8  20057393.656 6                                 105402297.818 8  82131673.571 6                                        49.300          40.600
G22  20687103.734 8  20687103.391 6                                 108711460.060 8  84710228.371 6                                        48.300          40.500
G27  23132044.164 7  23132049.227 5  23132049.578 7  23132049.184 8 121559683.565 7  94721875.677 5  94721873.673 7  90775124.586 8        43.900          31.400          43.400          48.300
G28  23213636.688 7  23213639.199 4                                 121988484.869 7  95055969.429 4                                        43.200          26.000
G32  22900322.852 7  22900327.379 5  22900327.242 7  22900326.457 8 120341984.412 7  93773013.331 5  93773011.336 7  89865799.261 8        44.100          33.000          44.600          50.400
R04  21532715.313 7  21532718.336 7 115306709.084 7  89682998.069 7        45.500          45.200
R06  21508515.781 5                 114773472.946 5                        33.600
R20  19587533.391 7  19587538.090 8 104743336.650 7  81467042.196 8        44.200          48.500
R21  21829587.617 7  21829590.848 7 116814435.260 7  90855748.070 7        45.800          43.500
> 2018 04 26 21 54 30.0000000  0 18
E01  27767718.805 6  27767722.809 8 145920353.082 6 110387779.923 8        36.400          51.200
E03  25463926.727 7  25463929.609 9 133813836.890 7 101229308.425 9        45.900          54.700
E08  21770637.625 8  21770639.109 9 114405473.091 8  86546970.527 9        50.100          58.100
E26  24559909.656 7  24559912.980 8 129063193.824 7  97635484.614 8        44.900          52.000
G01  20811502.094 8  20811507.547 6  20811506.910 7  20811506.449 8 109365163.717 8  85219648.479 6  85219643.477 7  81668821.167 8        50.700          41.100          47.000          53.500
G03  21808739.141 8  21808744.098 6  21808744.379 7  21808745.055 8 114605585.628 8  89303165.886 6  89303160.890 7  85582191.340 8        48.700          37.100          45.700          51.100
G08  20662029.086 8  20662034.004 7  20662034.484 7  20662033.555 8 108579658.441 8  84607576.599 7  84607572.609 7  81082252.265 8        52.500          42.900          47.700          53.300
G11  20271085.211 7  20271087.180 6                                 106525272.667 7  83006711.194 6                                        47.600          38.100
G14  22464611.938 6  22464614.457 4                                 118052282.717 6  91988841.763 4                                        39.900          27.600
G18  20053716.469 8  20053719.035 6                                 105382987.768 8  82116626.772 6                                        48.000          40.400
G22  20676967.625 8  20676967.887 6                                 108658197.437 8  84668725.039 6                                        48.200          40.500
G27  23147010.219 7  23147015.711 5  23147015.059 7  23147014.789 8 121638327.350 7  94783156.587 5  94783154.588 7  90833852.129 8        44.600          32.700          45.500          48.800
G28  23205100.953 7  23205102.590 4                                 121943624.881 7  95021013.591 4                                        43.500          27.200
G32  22900407.297 7  22900412.637 5  22900412.344 7  22900411.773 8 120342432.960 7  93773362.849 5  93773360.846 7  89866134.221 8        42.900          32.400          45.900          50.200
R04  21548247.563 7  21548250.625 7 115389885.104 7  89747690.523 7        45.400          44.800
R06  21482698.305 5                 114635701.293 5                        34.300
R20  19580859.266 7  19580864.273 7 104707646.129 7  81439282.904 7        43.500          47.700
R21  21807254.234 7  21807257.395 7 116694926.437 7  90762796.798 7        46.600          43.600
> 2018 04 26 21 55 00.0000000  0 18
E01  27768936.266 5  27768940.508 8 145926752.936 5 110392621.370 8        35.400          50.500
E03  25469547.992 7  25469550.645 9 133843376.229 7 101251654.745 9        45.600          54.700
E08  21760738.813 8  21760740.145 9 114353454.669 8  86507618.944 9        49.700          58.100
E26  24543219.711 7  24543224.098 8 128975492.365 7  97569139.072 8        43.600          51.900
G01  20800591.859 8  20800597.516 6  20800596.707 8  20800596.246 8 109307830.948 8  85174973.609 6  85174968.613 8  81626007.751 8        50.900          41.300          48.500          53.800
G03  21789793.078 8  21789798.074 6  21789798.363 7  21789798.500 8 114506022.357 8  89225584.124 6  89225579.121 7  85507842.148 8        49.400          38.100          47.500          51.100
G08  20666850.727 8  20666856.086 7  20666855.922 8  20666854.637 8 108604997.784 8  84627321.540 7  84627317.544 8  81101174.498 8        53.200          43.000          49.200          53.200
G11  20260082.477 8  20260083.887 6                                 106467450.711 8  82961655.133 6                                        48.200          38.800
G14  22455065.688 6  22455069.145 4                                 118002119.488 6  91949753.581 4                                        41.600          27.100
G18  20050138.727 8  20050141.016 6                                 105364185.703 8  82101975.815 6                                        48.100          39.400
G22  20666947.500 8  20666947.684 6                                 108605541.933 8  84627694.781 6                                        49.300          40.600
G27  23162051.555 7  23162055.996 5  23162055.719 7  23162056.539 8 121717370.269 7  94844748.443 5  94844746.439 7  90892877.661 8        45.400          32.600          44.100          48.700
G28  23196694.953 7  23196697.313 4                                 121899454.932 7  94986595.436 4                                        43.700          26.200
G32  22900635.133 7  22900640.645 5  22900640.992 7  22900639.957 8 120343629.310 7  93774295.073 5  93774293.070 7  89867027.581 8        43.000          32.100          46.300          50.200
R04  21563888.898 7  21563891.672 7 115473640.169 7  89812833.334 7        46.400          45.100
R06  21456981.758 5                 114498487.026 5                        31.200
R20  19574301.750 7  19574306.898 7 104672582.187 7  81412010.941 7        44.000          47.000
R21  21784970.547 7  21784975.160 7 116575685.404 7  90670053.808 7        46.000          43.700
> 2018 04 26 21 55 30.0000000  0 18
E01  27770257.922 6  27770261.883 8 145933696.914 6 110397874.449 8        36.000          50.100
E03  25475261.656 7  25475264.637 9 133873403.205 7 101274369.954 9        45.600          54.500
E08  21750947.398 8  21750948.648 9 114301999.322 8  86468693.321 9        49.400          58.000
E26  24526564.008 7  24526567.500 8 128887961.867 7  97502922.845 8        44.100          52.000
G01  20789758.086 8  20789763.758 6  20789763.430 8  20789762.602 8 109250898.307 8  85130610.518 6  85130605.521 8  81583493.125 8        51.600          41.100          48.900          53.600
G03  21770943.203 8  21770948.477 6  21770948.496 7  21770948.609 8 114406967.167 8  89148398.271 6  89148393.275 7  85433872.377 8        48.900          37.900          47.800          51.000
G08  20671795.477 8  20671800.629 7  20671800.672 8  20671798.828 8 108630981.706 8  84647568.747 7  84647564.751 8  81120578.083 8        53.400          43.800          50.500          53.300
G11  20249182.992 8  20249184.492 6                                 106410172.600 8  82917022.836 6                                        49.100          39.200
G14  22445646.516 7  22445648.707 4                                 117952617.938 7  91911180.944 4                                        43.200          28.100
G18  20046653.539 7  20046656.434 6                                 105345872.042 7  82087705.444 6                                        47.400          40.100
G22  20657039.891 8  20657039.613 6                                 108553473.945 8  84587122.341 6                                        48.900          41.000
G27  23177164.797 7  23177169.434 5  23177169.520 7  23177168.043 7 121796790.711 7  94906634.468 5  94906632.471 7  90952185.116 7        42.600          31.600          44.700          47.500
G28  23188417.422 7  23188419.715 4                                 121855955.827 7  94952700.037 4                                        43.200          26.400
G32  22901002.367 7  22901006.176 5  22901006.207 7  22901005.078 8 120345553.154 7  93775794.160 5  93775792.156 7  89868464.207 8        43.300          32.200          45.900          50.800
R04  21579632.195 7  21579635.320 7 115557950.104 7  89878407.716 7        45.100          44.600
R06  21431371.000 5                 114361813.605 5                        31.800
R20  19567858.289 7  19567863.820 7 104638127.213 7  81385212.637 7        44.300          47.700
R21  21762734.625 7  21762738.477 7 116456694.279 7  90577505.216 7        46.400          44.200
> 2018 04 26 21 56 00.0000000  0 17
E01  27771674.703 6  27771678.512 8 145941140.307 6 110403505.327 8        37.000          49.800
E03  25481060.148 7  25481063.105 9 133903872.912 7 101297420.090 9        46.000          54.700
E08  21741254.633 8  21741255.902 9 114251064.040 8  86430161.117 9        49.900          58.200
E26  24509930.813 7  24509935.297 8 128800559.410 7  97436803.479 8        42.700          52.100
G01  20778992.469 8  20778997.625 6  20778997.031 8  20778996.000 8 109194322.652 8  85086525.607 6  85086520.604 8  81541245.089 8        51.800          41.800          48.500          53.500
G03  21752182.500 8  21752187.691 6  21752187.496 7  21752188.000 8 114308377.703 8  89071575.336 6  89071570.339 7  85360250.398 8        49.200          37.700          45.700          50.900
G08  20676854.031 8  20676859.398 7  20676859.434 8  20676857.832 8 108657566.271 8  84668283.984 7  84668279.988 8  81140430.193 8        51.800          43.200          49.800          53.100
G11  20238378.656 8  20238379.625 6                                 106353396.413 8  82872781.658 6                                        48.500          38.900
G14  22436344.734 7  22436346.848 4                                 117903735.508 7  91873090.717 4                                        44.500          29.500
G18  20043253.125 8  20043256.004 6                                 105328003.286 8  82073781.743 6                                        49.200          39.900
G22  20647235.297 8  20647234.789 6                                 108501949.590 8  84546973.503 6                                        49.800          40.900
G27  23192341.117 7  23192346.195 5  23192345.836 7  23192345.977 8 121876543.483 7  94968779.511 5  94968777.518 7  91011740.743 8        43.000          32.300          45.400          49.500
G28  23180258.508 6  23180262.051 4                                 121813084.586 6  94919293.911 4                                        41.400          27.000
G32  22901497.445 7  22901502.980 5  22901502.980 7  22901502.117 8 120348160.483 7  93777825.831 5  93777823.827 7  89870411.230 8        44.000          33.000          45.800          50.900
R04  21595471.852 7  21595474.461 7 115642766.771 7  89944376.243 7        46.400          44.600
R20  19561520.641 7  19561526.488 8 104604238.407 7  81358854.669 8        43.800          48.600
R21  21740537.164 7  21740541.191 7 116337910.990 7  90485118.251 7        46.000          43.100
> 2018 04 26 21 56 30.0000000  0 18
E01  27773183.227 5  27773187.238 8 145949070.006 5 110409504.099 8        35.400          49.800
E03  25486939.727 7  25486942.895 9 133934771.896 7 101320794.979 9        46.200          54.500
E08  21731658.984 8  21731660.016 9 114200637.345 8  86392013.660 9        50.300          58.200
E26  24493321.656 7  24493325.465 8 128713273.542 7  97370772.317 8        43.600          52.000
G01  20768291.781 8  20768297.531 6  20768296.590 7  20768295.965 8 109138092.379 8  85042709.813 6  85042704.817 7  81499254.956 8        51.700          41.300          47.200          53.700
G03  21733507.680 8  21733513.371 6  21733513.465 7  21733513.797 8 114210243.090 8  88995106.813 6  88995101.812 7  85286968.067 8        48.700          38.500          47.200          51.600
G08  20682024.742 8  20682029.840 7  20682030.371 7  20682029.504 8 108684738.269 8  84689456.971 7  84689452.974 7  81160720.963 8        52.200          42.600          47.500          53.500
G11  20227668.555 8  20227669.371 6                                 106297111.434 8  82828923.237 6                                        48.800          38.900
G14  22427158.273 7  22427161.148 5                                 117855462.118 7  91835475.098 5                                        42.900          31.500
G18  20039935.625 8  20039938.527 6                                 105310567.775 8  82060195.638 6                                        49.100          40.200
G22  20637531.516 8  20637530.988 6                                 108450956.938 8  84507238.978 6                                        48.600          41.000
G27  23207577.844 7  23207582.445 5  23207582.895 7  23207582.520 8 121956614.883 7  95031172.804 5  95031170.808 7  91071534.323 8        43.400          31.300          45.600          48.900
G28  23172218.227 6  23172220.488 4                                 121770829.774 6  94886368.106 4                                        41.200          26.400
G32  22902121.539 7  22902126.762 5  22902126.613 7  22902125.664 8 120351438.630 7  93780380.235 5  93780378.232 7  89872859.201 8        44.500          34.100          47.200          50.500
R04  21611401.164 7  21611405.484 7 115728073.950 7  90010726.264 7        45.000          44.500
R06  21380425.945 5                 114089957.332 5                        31.200
R20  19555288.391 7  19555292.477 7 104570905.483 7  81332929.061 7        44.200          47.600
R21  21718377.305 7  21718380.672 7 116219325.673 7  90392885.256 7        46.000          43.900
> 2018 04 26 21 57 00.0000000  0 18
E01  27774779.789 5  27774783.520 8 145957458.856 5 110415850.239 8        35.800          49.600
E03  25492896.086 7  25492899.348 9 133966072.786 7 101344473.901 9        45.600          54.300
E08  21722154.984 8  21722156.148 9 114150693.730 8  86354231.647 9        50.400          58.300
E26  24476728.547 7  24476732.785 8 128626078.972 7  97304810.223 8        43.300          52.500
G01  20757652.828 8  20757658.094 7  20757657.758 8  20757656.820 8 109082181.892 8  84999143.219 7  84999138.223 8  81457503.644 8        51.200          42.600          48.700          53.800
G03  21714915.047 8  21714920.746 6  21714921.105 8  21714921.348 8 114112538.425 8  88918973.329 6  88918968.318 8  85214006.817 8        48.600          37.900          48.300          51.300
G08  20687302.094 8  20687307.203 7  20687307.398 8  20687306.637 8 108712471.348 8  84711067.163 7  84711063.174 8  81181430.731 8        52.500          43.100          49.700          53.700
G11  20217045.734 8  20217047.152 6                                 106241293.227 8  82785428.533 6                                        48.600          39.400
G14  22418083.750 7  22418086.516 5                                 117807772.979 7  91798314.729 5                                        44.900          33.100
G18  20036695.203 8  20036697.574 6                                 105293539.570 8  82046926.916 6                                        49.100          40.200
G22  20627924.000 8  20627923.734 6                                 108400469.622 8  84467898.223 6                                        49.200          41.000
G27  23222871.344 7  23222875.387 5  23222875.137 7  23222874.234 8 122036977.120 7  95093792.727 5  95093790.726 7  91131545.104 8        44.000          31.400          43.800          48.300
G28  23164289.813 6  23164291.301 4                                 121729165.890 6  94853902.740 4                                        41.400          26.900
G32  22902868.094 7  22902873.164 5  22902872.566 7  22902871.539 8 120355361.180 7  93783436.781 5  93783434.777 7  89875788.375 8        44.600          33.800          46.100          49.800
R04  21627418.383 7  21627420.758 7 115813840.693 7  90077433.726 7        45.500          44.900
R06  21355085.555 5                 113954742.132 5                        31.300
R20  19549153.078 7  19549158.832 7 104538104.224 7  81307416.972 7        44.600          47.100
R21  21696249.859 7  21696252.246 7 116100913.926 7  90300787.271 7        47.300          43.700
> 2018 04 26 21 57 30.0000000  0 18
E01  27776464.633 5  27776468.246 8 145966310.112 5 110422546.142 8        34.900          49.700
E03  25498929.836 7  25498932.586 9 133997778.577 7 101368459.118 9        45.700          54.400
E08  21712743.711 8  21712745.039 9 114101238.138 8  86316818.819 9        50.200          58.400
E26  24460154.977 7  24460158.531 8 128538980.687 7  97238920.971 8        43.600          52.300
G01  20747074.852 8  20747080.262 7  20747079.852 8  20747079.047 8 109026596.026 8  84955829.564 7  84955824.554 8  81415994.721 8        51.400          42.200          49.600          53.800
G03  21696405.617 8  21696411.027 6  21696410.859 8  21696411.750 8 114015269.271 8  88843179.197 6  88843174.193 8  85141370.781 8        48.800          37.800          48.200          51.400
G08  20692687.250 8  20692692.043 7  20692692.152 8  20692691.238 8 108740769.292 8  84733117.507 7  84733113.502 8  81202562.306 8        52.300          42.900          50.000          53.400
G11  20206514.273 8  20206515.957 6                                 106185947.662 8  82742302.126 6                                        49.300          39.200
G14  22409120.656 7  22409123.207 5                                 117760673.781 7  91761614.078 5                                        43.300          32.400
G18  20033533.180 8  20033535.836 6                                 105276923.507 8  82033979.334 6                                        48.600          39.600
G22  20618413.273 8  20618413.105 6                                 108350492.039 8  84428954.659 6                                        49.300          40.800
G27  23238218.664 7  23238222.930 5  23238223.527 7  23238223.590 8 122117632.901 7  95156641.409 5  95156639.405 7  91191775.083 8        44.000          30.500          42.700          48.000
G28  23156474.891 6  23156476.539 4                                 121688097.413 6  94821901.338 4                                        41.700          26.200
G32  22903738.023 7  22903742.453 5  22903742.113 7  22903741.594 8 120359931.912 7  93786998.385 5  93786996.389 7  89879201.591 8        45.300          33.100          44.800          50.200
R04  21643520.773 7  21643523.430 7 115900067.974 7  90144499.367 7        46.200          44.500
R06  21329833.852 4                 113820003.140 4                        28.900
R20  19543119.852 7  19543125.465 8 104505840.781 7  81282323.186 8        43.900          48.100
R21  21674154.531 7  21674158.375 7 115982682.780 7  90208829.747 7        47.500          44.000
> 2018 04 26 21 58 00.0000000  0 17
E01  27778232.180 6  27778236.152 8 145975601.296 6 110429574.847 8        36.700          49.800
E03  25505035.773 7  25505038.859 9 134029866.570 7 101392733.487 9        45.100          54.500
E08  21703421.594 8  21703423.082 9 114052249.787 8  86279759.477 9        49.300          58.500
E26  24443593.922 7  24443598.637 8 128451958.073 7  97173088.979 8        43.400          52.400
G01  20736555.016 8  20736560.148 6  20736559.621 8  20736558.934 8 108971313.944 8  84912752.639 6  84912747.643 8  81374712.669 8        51.900          41.700          48.900          53.700
G03  21677974.922 8  21677979.945 6  21677980.320 7  21677981.133 8 113918415.544 8  88767708.773 6  88767703.771 7  85069044.959 8        48.800          37.900          45.800          51.500
G08  20698175.625 8  20698180.457 7  20698180.430 8  20698179.477 8 108769610.241 8  84755590.961 7  84755586.964 8  81224099.371 8        52.900          42.800          48.800          53.700
G11  20196068.344 7  20196069.848 6                                 106131055.020 7  82699528.646 6                                        47.400          39.400
G14  22400266.078 7  22400268.723 5                                 117714144.873 7  91725357.817 5                                        44.800          31.400
G18  20030445.516 8  20030447.945 6                                 105260698.367 8  82021336.370 6                                        48.400          39.900
G22  20608995.797 7  20608995.492 6                                 108301002.722 7  84390391.575 6                                        47.300          41.100
G27  23253619.563 7  23253623.738 5  23253623.887 7  23253623.641 7 122198559.230 7  95219700.939 5  95219698.928 7  91252207.166 7        45.000          31.400          43.800          47.300
G28  23148768.914 7  23148771.309 4                                 121647604.109 7  94790348.110 4                                        42.000          27.100
G32  22904726.656 7  22904732.023 5  22904731.816 7  22904730.926 8 120365128.929 7  93791048.018 5  93791046.014 7  89883082.495 8        45.000          32.800          45.300          50.400
R04  21659703.203 7  21659707.168 7 115986729.756 7  90211902.981 7        44.900          44.400
R20  19537183.250 7  19537188.770 8 104474095.421 7  81257632.348 8        43.700          48.800
R21  21652089.875 7  21652093.457 7 115864613.032 7  90116997.751 7        47.800          44.200
> 2018 04 26 21 58 30.0000000  0 18
E01  27780083.484 5  27780086.160 8 145985323.863 5 110436929.904 8        34.600          49.800
E03  25511213.180 7  25511216.172 9 134062327.989 7 101417290.345 9        46.200          54.500
E08  21694187.234 8  21694188.262 9 114003721.793 8  86243048.374 9        50.100          58.400
E26  24427048.258 7  24427051.836 8 128365004.416 7  97107309.126 8        43.800          52.500
G01  20726091.789 8  20726097.145 6  20726096.531 7  20726095.930 9 108916328.693 8  84869907.001 6  84869902.012 7  81333652.272 9        50.000          41.300          47.000          54.000
G03  21659622.023 8  21659627.059 6  21659627.359 7  21659627.781 8 113821970.897 8  88692557.123 6  88692552.120 7  84997024.633 8        49.000          38.000          47.100          51.300
G08  20703765.547 8  20703770.402 7  20703770.395 7  20703769.777 8 108798985.613 8  84778480.864 7  84778476.868 7  81246035.526 8        52.800          42.600          47.600          53.500
G11  20185707.969 7  20185709.453 6                                 106076609.364 7  82657103.463 6                                        46.900          39.200
G14  22391520.227 7  22391521.875 5                                 117668180.403 7  91689541.348 5                                        45.300          32.400
G18  20027431.203 8  20027433.254 6                                 105244856.581 8  82008992.135 6                                        50.400          39.300
G22  20599669.695 8  20599669.848 6                                 108251994.095 8  84352203.046 6                                        49.100          40.600
G27  23269068.531 7  23269073.258 4  23269072.637 7  23269072.633 8 122279747.119 7  95282964.198 4  95282962.216 7  91312834.460 8        43.700          28.700          42.100          48.000
G28  23141171.344 6  23141173.484 4                                 121607678.749 6  94759237.463 4                                        40.300          26.200
G32  22905833.133 7  22905838.086 5  22905838.199 7  22905837.281 8 120370944.260 7  93795579.469 5  93795577.473 7  89887425.124 8        44.400          33.700          45.800          50.200
R04  21675966.875 7  21675969.590 7 116073814.854 7  90279635.823 7        45.300          44.600
R06  21279591.594 5                 113551891.533 5                        31.300
R20  19531343.500 7  19531347.891 7 104442862.524 7  81233340.114 7        43.800          47.300
R21  21630055.313 7  21630059.695 7 115746699.315 7  90025287.111 7        47.700          44.100
> 2018 04 26 21 59 00.0000000  0 18
E01  27782012.133 6  27782016.824 8 145995468.442 6 110444604.209 8        36.800          49.100
E03  25517459.227 7  25517462.477 9 134095153.235 7 101442122.435 9        45.100          54.200
E08  21685038.844 8  21685039.855 9 113955646.462 8  86206679.701 9        51.200          58.500
E26  24410512.594 7  24410516.949 8 128278112.204 7  97041575.778 8        43.200          52.800
G01  20715683.453 8  20715688.598 6  20715687.988 8  20715687.445 8 108861632.511 8  84827286.602 6  84827281.599 8  81292807.734 8        50.900          41.600          49.400          53.800
G03  21641345.781 8  21641350.953 6  21641351.109 7  21641351.730 8 113725928.260 8  88617718.723 6  88617713.718 7  84925304.502 8        48.900          37.800          47.700          51.200
G08  20709455.461 8  20709460.543 7  20709460.918 8  20709459.504 8 108828886.922 8  84801780.580 7  84801776.583 8  81268364.416 8        52.200          43.000          50.500          53.700
G11  20175430.961 7  20175432.176 6                                 106022603.854 7  82615021.254 6                                        47.800          38.500
G14  22382879.477 7  22382880.813 5                                 117622773.579 7  91654159.422 5                                        46.500          32.600
G18  20024488.063 8  20024490.531 6                                 105229390.646 8  81996940.759 6                                        49.100          39.700
G22  20590433.813 8  20590433.832 6                                 108203457.901 8  84314382.650 6                                        48.100          40.500
G27  23284565.891 6  23284568.555 4  23284569.563 7  23284570.039 8 122361186.468 6  95346423.450 4  95346421.453 7  91373649.571 8        41.500          26.300          42.000          48.500
G28  23133681.273 7  23133682.934 4                                 121568313.459 7  94728563.255 4                                        42.800          27.300
G32  22907055.578 7  22907060.945 5  22907060.789 7  22907059.613 8 120377369.135 7  93800585.862 5  93800583.852 7  89892222.915 8        43.700          33.600          46.200          49.400
R04  21692306.086 7  21692309.086 7 116161311.009 7  90347688.366 7        45.100          43.800
R06  21254597.367 5                 113418510.415 5                        33.200
R20  19525597.555 7  19525602.488 7 104412135.782 7  81209441.525 7        43.800          46.900
R21  21608048.070 7  21608051.004 7 115628935.744 7  89933693.245 7        47.200          43.800
> 2018 04 26 21 59 30.0000000  0 18
E01  27784024.680 5  27784028.145 8 146006039.757 5 110452601.336 8        34.700          48.300
E03  25523776.156 7  25523779.164 9 134128346.924 7 101467233.240 9        45.700          54.600
E08  21675977.695 8  21675978.598 9 113908030.240 8  86170658.344 9        49.700          58.400
E26  24393990.680 7  24393994.820 8 128191288.108 7  96975893.950 8        43.800          52.800
G01  20705331.375 8  20705336.836 6  20705336.410 8  20705335.387 8 108807231.879 8  84784896.500 6  84784891.505 8  81252183.891 8        52.300          41.700          49.500          53.900
