     3.03           OBSERVATION DATA    M (MIXED)           RINEX VERSION / TYPE
cnvtToRINEX 3.05.0  convertToRINEX OPR  27-Apr-18 09:36 UTC PGM / RUN BY / DATE 
gfzrnx-1.10-7329    FILE CONVERSION     20180626 074807 UTC COMMENT             
----------------------------------------------------------- COMMENT             
FIELD                                                       MARKER NAME         
FIELD                                                       MARKER NUMBER       
GEODETIC                                                    MARKER TYPE         
lugarcia            UPV                                     OBSERVER / AGENCY   
5042451519          TRIMBLE R8 GNSS3    4.71                REC # / TYPE / VERS 
                    TRM60158.00     NONE                    ANT # / TYPE        
  4929459.7746   -29217.9357  4033767.9959                  APPROX POSITION XYZ 
        0.0000        0.0000        0.0000                  ANTENNA: DELTA H/E/N
     0                                                      RCV CLOCK OFFS APPL 
 18 R01  1 R02 -4 R04  6 R06 -4 R07  5 R08  6 R09 -2 R10 -7 GLONASS SLOT / FRQ #
    R11  0 R12 -1 R16 -1 R17  4 R19  3 R20  2 R21  4 R22 -3 GLONASS SLOT / FRQ #
    R23  3 R24  2                                           GLONASS SLOT / FRQ #
R L2P  0.00000                                              SYS / PHASE SHIFT   
G L2X -0.25000                                              SYS / PHASE SHIFT   
    18                  GPS                                 LEAP SECONDS        
DBHZ                                                        SIGNAL STRENGTH UNIT
 C1C    0.000 C2P    0.000                                  GLONASS COD/PHS/BIS 
E    6 C1X C8X L1X L8X S1X S8X                              SYS / # / OBS TYPES 
G   12 C1C C2W C2X C5X L1C L2W L2X L5X S1C S2W S2X S5X      SYS / # / OBS TYPES 
R    6 C1C C2P L1C L2P S1C S2P                              SYS / # / OBS TYPES 
    49                                                      # OF SATELLITES     
   E01    71    71    71    71    71    71                  PRN / # OF OBS      
   E03   199   199   199   199   199   199                  PRN / # OF OBS      
   E04    36    36    36    36    36    36                  PRN / # OF OBS      
   E07   884   883   884   883   884   883                  PRN / # OF OBS      
   E08   529   529   529   529   529   529                  PRN / # OF OBS      
   E12   370   370   370   370   370   370                  PRN / # OF OBS      
   E19   364   364   364   364   364   364                  PRN / # OF OBS      
   E26   749   749   749   749   749   749                  PRN / # OF OBS      
   E30   353   353   353   353   353   353                  PRN / # OF OBS      
   G01   545   545   545   545   545   545   545   545   545PRN / # OF OBS      
         545   545   545                                    PRN / # OF OBS      
   G02   453   453               453   453               453PRN / # OF OBS      
         453                                                PRN / # OF OBS      
   G03   672   664   669   671   672   664   669   671   672PRN / # OF OBS      
         664   669   671                                    PRN / # OF OBS      
   G05   288   288   288         288   288   288         288PRN / # OF OBS      
         288   288                                          PRN / # OF OBS      
   G06   629   628   628   628   628   628   628   628   629PRN / # OF OBS      
         628   628   628                                    PRN / # OF OBS      
   G07   477   477   477         477   477   477         477PRN / # OF OBS      
         477   477                                          PRN / # OF OBS      
   G08   264   258   263   263   263   258   263   263   264PRN / # OF OBS      
         258   263   263                                    PRN / # OF OBS      
   G09   717   717   717   717   717   717   717   717   717PRN / # OF OBS      
         717   717   717                                    PRN / # OF OBS      
   G10    20    20    20    20    20    20    20    20    20PRN / # OF OBS      
          20    20    20                                    PRN / # OF OBS      
   G11   462   459               462   459               462PRN / # OF OBS      
         459                                                PRN / # OF OBS      
   G13   163   163               163   163               163PRN / # OF OBS      
         163                                                PRN / # OF OBS      
   G14   322   322               322   322               322PRN / # OF OBS      
         322                                                PRN / # OF OBS      
   G17   522   522   522         522   522   522         522PRN / # OF OBS      
         522   522                                          PRN / # OF OBS      
   G18   403   397               401   397               403PRN / # OF OBS      
         397                                                PRN / # OF OBS      
   G19   479   479               479   479               479PRN / # OF OBS      
         479                                                PRN / # OF OBS      
   G22   531   522               531   522               531PRN / # OF OBS      
         522                                                PRN / # OF OBS      
   G23   708   708               708   708               708PRN / # OF OBS      
         708                                                PRN / # OF OBS      
   G27    98    95    98    98    98    95    98    98    98PRN / # OF OBS      
          95    98    98                                    PRN / # OF OBS      
   G28   346   344               345   344               346PRN / # OF OBS      
         344                                                PRN / # OF OBS      
   G30   376   376   376   376   376   376   376   376   376PRN / # OF OBS      
         376   376   376                                    PRN / # OF OBS      
   G31   140   132   135         135   132   135         140PRN / # OF OBS      
         132   135                                          PRN / # OF OBS      
   G32   189   189   189   189   189   189   189   189   189PRN / # OF OBS      
         189   189   189                                    PRN / # OF OBS      
   R01   357   357   357   357   357   357                  PRN / # OF OBS      
   R02    57    57    57    57    57    57                  PRN / # OF OBS      
   R04   115   115   115   115   115   115                  PRN / # OF OBS      
   R06   578         578         578                        PRN / # OF OBS      
   R07   712   703   712   703   712   703                  PRN / # OF OBS      
   R08   602   602   602   602   602   602                  PRN / # OF OBS      
   R09   391   391   391   391   391   391                  PRN / # OF OBS      
   R10   374   374   374   374   374   374                  PRN / # OF OBS      
   R11   238   238   238   238   238   238                  PRN / # OF OBS      
   R12    81          81          81                        PRN / # OF OBS      
   R16   251   251   251   251   251   251                  PRN / # OF OBS      
   R17   172   172   172   172   172   172                  PRN / # OF OBS      
   R19    92    92    92    92    92    92                  PRN / # OF OBS      
   R20   349   349   349   349   349   349                  PRN / # OF OBS      
   R21   534   534   534   534   534   534                  PRN / # OF OBS      
   R22   528   528   528   528   528   528                  PRN / # OF OBS      
   R23   434   434   434   434   434   434                  PRN / # OF OBS      
   R24   331   330   331   330   331   330                  PRN / # OF OBS      
    30.000                                                  INTERVAL            
  2018     4    26    21    42    0.0000000     GPS         TIME OF FIRST OBS   
  2018     4    27     5    39   30.0000000     GPS         TIME OF LAST OBS    
                                                            END OF HEADER      
> 2018 04 26 21 42 00.0000000  0 20
E01  27760466.547 7  27760469.547 8 145882235.629 7 110358936.451 8        43.500          50.400
E03  25343321.898 7  25343324.020 9 133180054.384 7 100749820.710 9        47.800          55.600
E08  22041624.289 8  22041625.051 9 115829603.745 8  87624250.781 9        49.500          58.100
G01  21097763.523 8  21097768.574 6  21097768.359 8  21097766.773 8 110869492.149 8  86391845.373 6  86391841.369 8  82792166.519 8        51.500          40.800          49.100          53.100
G03  22302156.914 7  22302162.090 6  22302162.383 7  22302161.934 8 117198627.626 7  91323614.488 6  91323629.492 7  87518471.708 8        45.700          37.400          46.800          49.900
G08  20570665.422 8  20570669.773 7  20570670.363 8  20570668.852 9 108099569.398 8  84233457.940 7  84233483.941 8  80723720.626 9        51.200          43.200          49.800          54.100
G10  24318798.406 6  24318802.809 4  24318802.680 6  24318801.301 7 127796118.054 6  99581429.514 4  99581430.528 6  95432201.929 7        39.100          25.000          40.800          45.700
G11  20567961.039 8  20567962.324 6                                 108085479.657 8  84222370.980 6                                        49.600          39.700
G14  22732292.523 7  22732294.535 5                                 119458997.342 7  93084949.853 5                                        43.100          30.500
G18  20162264.711 8  20162267.211 6                                 105953415.025 8  82561112.553 6                                        50.400          41.200
G22  20952804.914 8  20952804.109 6                                 110107729.939 8  85798192.479 6                                        48.300          41.400
G27  22784319.750 7  22784324.207 5  22784324.355 7  22784322.992 8 119732403.520 7  93297996.677 5  93297996.664 7  89410589.504 8        45.100          35.800          47.800          49.400
G28  23445312.539 7  23445314.156 4                                 123205948.076 7  96004648.121 4                                        42.600          27.000
G32  22928928.578 7  22928932.277 5  22928932.453 7  22928931.121 8 120492325.152 7  93890143.447 5  93890148.436 7  89978049.575 8        46.200          34.700          46.600          50.300
R04  21182078.484 7  21182080.727 7 113429067.813 7  88222614.950 7        46.600          46.100
R06  22145693.516 6                 118173652.420 6                        36.600
R11  23625825.000 6  23625830.762 7 126249288.577 6  98193875.236 7        40.800          42.400
R19  21613149.836 7  21613150.395 7 115615765.348 7  89923391.570 7        44.700          43.300
R20  19769685.469 7  19769689.539 8 105717458.262 7  82224633.364 8        44.100          49.200
R21  22367272.875 7  22367276.379 6 119691938.134 7  93093637.892 6        45.300          41.900
> 2018 04 26 21 42 30.0000000  0 20
E01  27756077.039 7  27756080.180 8 145859167.994 7 110341485.952 8        43.000          51.000
E03  25343584.836 7  25343587.051 9 133181436.399 7 100750866.191 9        46.400          56.000
E08  22026131.211 8  22026132.219 9 115748188.919 8  87562661.009 9        49.200          58.200
G01  21082017.883 8  21082022.754 6  21082022.656 8  21082021.367 8 110786748.506 8  86327369.821 6  86327365.816 8  82730377.445 8        49.400          41.400          48.900          53.100
G03  22277914.922 7  22277919.969 6  22277920.281 7  22277919.867 8 117071235.597 7  91224347.989 6  91224362.986 7  87423341.315 8        45.100          36.900          46.600          49.800
G08  20569435.914 8  20569439.703 7  20569440.176 8  20569438.898 9 108093106.140 8  84228421.638 7  84228447.632 8  80718894.161 9        51.000          43.700          49.800          54.100
G10  24330130.930 6  24330135.563 3  24330135.043 6  24330133.703 7 127855672.811 6  99627835.810 3  99627836.828 6  95476674.646 7        39.200          22.900          40.800          45.800
G11  20551507.031 7  20551507.938 6                                 107999013.656 7  84154994.880 6                                        47.500          39.800
G14  22716748.320 7  22716750.121 5                                 119377314.943 7  93021301.238 5                                        45.100          30.500
G18  20153418.859 8  20153421.383 6                                 105906930.033 8  82524890.491 6                                        50.500          40.900
G22  20937036.859 8  20937036.383 6                                 110024869.651 8  85733626.039 6                                        49.500          41.100
G27  22794507.297 7  22794511.258 5  22794511.570 7  22794510.219 8 119785938.634 7  93339712.349 5  93339712.352 7  89450567.018 8        45.600          35.700          46.700          49.000
G28  23430804.656 7  23430806.512 4                                 123129704.999 7  95945237.971 4                                        43.800          26.600
G32  22922720.828 7  22922724.996 5  22922724.855 7  22922724.016 8 120459705.274 7  93864725.373 5  93864730.369 7  89953690.580 8        44.700          35.100          46.300          50.800
R04  21191932.148 7  21191933.262 7 113481830.654 7  88263652.703 7        46.500          45.800
R06  22114696.078 6                 118008239.016 6                        37.300
R11  23627245.117 6  23627250.586 6 126256874.230 6  98199775.139 6        38.300          41.800
R19  21619081.828 7  21619082.867 7 115647502.439 7  89948075.991 7        44.300          43.300
R20  19757448.609 7  19757453.211 8 105652025.983 7  82173741.603 8        44.100          49.200
R21  22340997.102 7  22341001.156 6 119551333.151 7  92984278.471 6        43.500          41.700
> 2018 04 26 21 43 00.0000000  0 21
E01  27751803.258 7  27751805.805 8 145836706.957 7 110324494.320 8        43.600          51.300
E03  25343954.070 7  25343956.293 9 133183376.857 7 100752334.144 9        47.200          55.900
E08  22010750.047 8  22010750.477 9 115667357.732 8  87501512.754 9        49.000          58.200
E26  24935539.719 6  24935543.203 8 131037140.849 6  99128724.982 8        41.200          51.900
G01  21066353.727 8  21066358.414 6  21066358.262 7  21066356.793 8 110704433.905 8  86263228.569 6  86263224.565 7  82668908.771 8        51.300          41.500          47.300          53.000
G03  22253771.664 7  22253776.297 6  22253776.641 7  22253776.137 8 116944357.543 7  91125482.002 6  91125496.993 7  87328594.749 8        46.500          36.900          46.900          49.200
G08  20568337.586 8  20568341.770 7  20568342.273 8  20568340.848 9 108087336.164 8  84223925.555 7  84223951.557 8  80714585.423 9        52.000          43.900          50.200          54.400
G10  24341515.703 6  24341519.082 3  24341519.137 6  24341517.926 7 127915495.214 6  99674450.674 3  99674451.667 6  95521347.213 7        41.100          23.900          40.800          47.500
G11  20535157.023 8  20535157.844 6                                 107913092.130 8  84088043.037 6                                        50.300          39.200
G14  22701329.578 7  22701331.594 5                                 119296288.070 7  92958163.423 5                                        45.700          31.700
G18  20144672.461 8  20144674.461 6                                 105860967.245 8  82489075.344 6                                        50.600          41.600
G22  20921387.258 8  20921387.039 6                                 109942632.806 8  85669545.393 6                                        49.300          40.900
G27  22804781.414 7  22804785.543 6  22804785.707 7  22804784.621 8 119839930.138 7  93381783.667 6  93381783.659 7  89490885.373 8        46.200          36.000          47.100          48.900
G28  23416426.984 7  23416428.359 4                                 123054151.215 7  95886364.895 4                                        43.000          27.500
G32  22916660.180 7  22916664.082 5  22916664.297 7  22916663.160 8 120427855.982 7  93839907.736 5  93839912.728 7  89929907.022 8        45.300          34.600          46.500          50.200
R04  21201914.258 7  21201916.270 7 113535286.348 7  88305229.349 7        47.000          46.500
R06  22083788.727 6                 117843320.363 6                        37.000
R11  23628812.172 6  23628817.539 6 126265251.050 6  98206290.418 6        40.000          40.400
R19  21625117.766 7  21625118.652 7 115679787.976 7  89973186.952 7        45.100          43.500
R20  19745323.719 7  19745328.387 8 105587190.690 7  82123314.153 8        44.100          48.000
R21  22314767.117 7  22314770.160 7 119410964.597 7  92875102.950 7        44.600          42.700
> 2018 04 26 21 43 30.0000000  0 21
E01  27747641.328 6  27747644.027 8 145814836.916 6 110307949.776 8        41.900          50.800
E03  25344426.617 7  25344428.891 9 133185859.749 7 100754212.444 9        46.800          55.800
E08  21995476.539 8  21995477.316 9 115587096.181 8  87440795.425 9        49.200          58.200
E26  24915188.164 7  24915192.145 8 130930194.520 7  99047820.813 8        42.300          52.300
G01  21050768.711 8  21050773.523 6  21050773.082 8  21050772.016 8 110622533.872 8  86199410.386 6  86199406.382 8  82607749.669 8        48.100          40.800          49.000          53.200
G03  22229722.586 7  22229727.133 6  22229727.211 7  22229727.090 8 116817980.051 7  91027006.054 6  91027021.043 7  87234221.971 8        46.200          37.300          46.700          49.600
G08  20567368.688 8  20567373.066 7  20567373.512 8  20567372.262 8 108082244.132 8  84219957.740 7  84219983.734 8  80710782.929 8        52.300          44.400          50.500          53.900
G10  24352946.445 6  24352951.039 4  24352950.727 6  24352949.184 7 127975568.586 6  99721261.091 4  99721262.088 6  95566207.172 7        41.100          24.200          40.900          46.900
G11  20518907.664 7  20518909.023 6                                 107827702.039 7  84021505.307 6                                        47.200          40.300
G14  22686033.125 7  22686035.133 5                                 119215903.809 7  92895526.356 5                                        43.300          30.400
G18  20136022.898 8  20136024.555 6                                 105815511.824 8  82453655.544 6                                        50.000          40.800
G22  20905853.969 8  20905853.895 6                                 109861004.452 8  85605938.903 6                                        49.000          41.500
G27  22815139.203 7  22815143.191 5  22815143.230 7  22815142.035 8 119894361.693 7  93424197.860 5  93424197.853 7  89531532.324 8        45.500          35.400          47.100          48.800
G28  23402178.008 7  23402179.543 4                                 122979273.443 7  95828018.628 4                                        42.600          26.400
G32  22910743.250 7  22910746.969 5  22910747.207 7  22910745.988 8 120396762.528 7  93815679.090 5  93815684.086 7  89906687.905 8        46.400          35.300          46.800          50.700
R04  21212022.648 7  21212024.727 7 113589415.842 7  88347330.075 7        46.800          45.300
R06  22052974.148 6                 117678885.010 6                        36.400
R11  23630526.500 6  23630531.078 7 126274401.120 6  98213407.115 7        40.900          42.800
R19  21631252.953 7  21631254.387 7 115712606.373 7  89998712.375 7        43.900          44.400
R20  19733308.805 7  19733313.512 8 105522939.478 7  82073340.989 8        43.800          49.100
R21  22288576.953 7  22288580.391 7 119270819.280 7  92766101.062 7        44.300          42.400
> 2018 04 26 21 44 00.0000000  0 21
E01  27743585.828 7  27743588.738 8 145793526.943 7 110291828.919 8        42.900          50.700
E03  25344996.180 7  25344998.559 9 133188853.768 7 100756477.398 9        46.900          55.800
E08  21980305.852 8  21980306.875 9 115507375.043 8  87380486.917 9        50.200          58.400
E26  24894865.688 7  24894869.703 8 130823399.786 7  98967031.357 8        42.100          52.400
G01  21035256.969 8  21035261.973 6  21035261.703 8  21035260.465 8 110541018.707 8  86135892.088 6  86135888.084 8  82546877.976 8        50.900          41.700          49.100          53.000
G03  22205763.398 7  22205767.766 6  22205767.879 7  22205767.664 8 116692074.503 7  90928897.859 6  90928912.854 7  87140201.620 8        46.900          37.300          46.800          49.900
G08  20566523.500 8  20566527.441 7  20566528.070 8  20566526.461 9 108077800.083 8  84216494.843 7  84216520.845 8  80707464.319 9        51.900          43.800          50.300          54.300
G10  24364420.523 7  24364423.625 4  24364423.258 6  24364422.410 7 128035860.929 7  99768242.148 4  99768243.167 6  95611230.706 7        42.500          26.500          40.400          47.800
G11  20502754.414 8  20502755.031 6                                 107742814.521 8  83955359.201 6                                        50.000          39.600
G14  22670854.000 7  22670855.176 5                                 119136134.157 7  92833368.172 5                                        43.600          32.400
G18  20127463.813 8  20127465.887 6                                 105770533.956 8  82418607.865 6                                        50.900          41.000
G22  20890430.969 8  20890430.613 6                                 109779955.314 8  85542783.748 6                                        48.500          40.500
G27  22825575.148 7  22825579.488 6  22825579.660 7  22825578.336 8 119949201.672 7  93466930.311 6  93466930.311 7  89572484.257 8        44.800          36.200          46.500          48.700
G28  23388052.273 7  23388053.500 4                                 122905041.845 7  95770175.841 4                                        42.600          27.300
G32  22904964.391 7  22904968.633 5  22904968.293 7  22904967.188 8 120366394.961 7  93792016.057 5  93792021.053 7  89884010.820 8        44.500          35.200          47.400          50.700
R04  21222249.969 7  21222252.387 7 113644184.673 7  88389928.041 7        47.100          46.200
R06  22022244.961 6                 117514905.808 6                        36.400
R11  23632376.070 6  23632380.273 6 126284290.604 6  98221098.927 6        40.900          40.300
R19  21637481.070 7  21637482.832 7 115745926.935 7  90024628.360 7        43.900          44.500
R20  19721397.477 7  19721401.461 8 105459243.523 7  82023799.703 8        44.000          48.400
R21  22262423.359 7  22262428.113 7 119130868.522 7  92657250.533 7        43.900          43.200
> 2018 04 26 21 44 30.0000000  0 20
E01  27739632.664 6  27739635.578 8 145772752.126 6 110276112.911 8        41.800          50.800
E03  25345658.398 7  25345660.766 9 133192333.621 7 100759109.886 9        46.700          55.800
E08  21965233.836 8  21965234.852 9 115428171.100 8  87320569.656 9        49.800          58.400
E26  24874567.484 7  24874571.660 8 130716733.111 7  98886338.768 8        42.100          52.300
G01  21019813.961 8  21019818.652 6  21019818.352 8  21019817.203 8 110459864.696 8  86072655.201 6  86072651.204 8  82486275.964 8        50.700          41.100          49.000          53.100
G03  22181889.992 7  22181894.449 6  22181894.805 7  22181894.406 8 116566618.193 7  90831139.717 6  90831154.713 7  87046516.737 8        46.400          37.600          46.600          50.000
G08  20565795.883 8  20565800.133 7  20565800.473 8  20565799.270 9 108073979.193 8  84213517.523 7  84213543.532 8  80704611.051 9        51.500          43.800          50.100          54.600
G10  24375930.047 6  24375934.266 4  24375933.832 7  24375932.996 8 128096346.419 6  99815373.719 4  99815374.708 7  95656398.438 8        40.800          26.500          42.200          48.700
G11  20486691.938 8  20486693.086 6                                 107658407.147 8  83889587.227 6                                        49.500          39.600
G14  22655786.461 7  22655788.160 5                                 119056956.983 7  92771671.693 5                                        43.300          31.300
G18  20118991.250 8  20118993.207 6                                 105726009.923 8  82383913.818 6                                        50.300          41.300
G22  20875113.430 8  20875113.348 6                                 109699461.212 8  85480061.086 6                                        49.100          40.900
G27  22836083.727 7  22836087.359 6  22836087.262 7  22836086.559 8 120004424.458 7  93509961.063 6  93509961.077 7  89613722.069 8        45.800          36.400          47.000          48.800
G28  23374045.258 6  23374046.621 4                                 122831433.630 6  95712818.800 4                                        41.800          27.200
G32  22899319.070 7  22899323.434 5  22899323.477 7  22899322.219 8 120336729.337 7  93768899.984 5  93768904.987 7  89861857.927 8        45.400          34.900          47.000          50.800
R04  21232593.203 7  21232594.332 7 113699564.595 7  88433001.325 7        47.300          46.200
R06  21991595.750 6                 117351361.601 6                        37.300
R19  21643799.602 7  21643801.023 7 115779724.917 7  90050915.669 7        44.700          44.400
R20  19709584.938 7  19709590.324 8 105396080.552 7  81974672.957 8        43.800          49.400
R21  22236303.266 7  22236306.711 7 118991089.985 7  92548533.919 7        44.100          43.100
> 2018 04 26 21 45 00.0000000  0 20
E01  27735778.258 6  27735780.738 8 145752494.246 6 110260787.949 8        40.600          51.200
E03  25346409.602 7  25346411.973 9 133196280.652 7 100762095.804 9        46.900          55.900
E08  21950257.273 8  21950258.047 9 115349467.710 8  87261031.071 9        49.900          58.500
E26  24854290.750 7  24854294.621 8 130610177.454 7  98805730.169 8        42.800          52.000
G01  21004435.984 8  21004440.941 6  21004440.539 8  21004439.375 8 110379054.717 8  86009686.400 6  86009682.404 8  82425930.863 8        51.300          41.100          48.800          53.500
G03  22158098.617 7  22158103.352 6  22158103.453 7  22158102.961 8 116441595.089 7  90733719.133 6  90733734.129 7  86953155.349 8        45.300          37.300          47.200          50.200
G08  20565184.344 8  20565188.785 7  20565189.242 8  20565187.516 9 108070764.245 8  84211012.368 7  84211038.370 8  80702210.278 9        51.700          43.800          50.600          54.400
G10  24387473.039 6  24387477.305 4  24387477.246 7  24387475.977 8 128157005.679 6  99862640.698 4  99862641.697 7  95701695.920 8        41.700          27.500          43.100          48.700
G11  20470718.148 8  20470719.453 6                                 107574463.781 8  83824176.822 6                                        48.200          39.400
G14  22640828.938 7  22640831.430 5                                 118978356.603 7  92710424.645 5                                        44.600          30.900
G18  20110601.492 8  20110603.570 6                                 105681922.256 8  82349559.802 6                                        50.900          41.300
G22  20859898.227 7  20859897.953 6                                 109619504.459 7  85417757.140 6                                        47.600          40.600
G27  22846661.141 7  22846665.871 5  22846665.484 7  22846664.777 8 120060011.042 7  93553275.278 5  93553275.273 7  89655231.541 8        44.100          35.500          47.000          48.600
G28  23360152.750 6  23360155.402 4                                 122758432.197 6  95655934.602 4                                        41.700          27.100
G32  22893804.445 7  22893808.641 5  22893808.508 7  22893807.133 8 120307748.124 7  93746317.231 5  93746322.232 7  89840216.119 8        45.800          34.600          47.000          50.500
R04  21243045.000 7  21243045.898 7 113755533.879 7  88476532.982 7        46.900          45.700
R06  21961027.508 6                 117188238.244 6                        37.200
R19  21650204.164 7  21650205.457 7 115813982.309 7  90077560.307 7        44.100          43.800
R20  19697870.820 7  19697874.414 8 105333434.771 7  81925948.460 8        43.600          49.000
R21  22210211.672 7  22210214.746 7 118851467.535 7  92439938.725 7        45.000          43.000
> 2018 04 26 21 45 30.0000000  0 20
E01  27732018.906 6  27732022.133 8 145732742.535 6 110245845.874 8        41.200          51.100
E03  25347247.320 7  25347249.594 9 133200683.810 7 100765426.765 9        47.100          55.900
E08  21935374.102 8  21935374.988 9 115271255.889 8  87201864.347 9        49.300          58.500
E26  24834033.586 7  24834036.988 8 130503723.622 7  98725198.576 8        43.100          52.000
G01  20989122.375 8  20989127.277 6  20989126.879 8  20989125.711 8 110298579.313 8  85946978.305 6  85946974.293 8  82365835.604 8        48.600          41.300          49.000          53.200
G03  22134388.820 7  22134392.902 6  22134393.184 7  22134392.977 8 116316996.734 7  90636629.536 6  90636644.527 7  86860111.153 8        47.000          37.800          47.500          49.800
G08  20564685.758 8  20564690.121 7  20564690.477 8  20564689.023 9 108068145.066 8  84208971.444 7  84208997.453 8  80700254.396 9        51.800          43.700          49.900          54.000
G10  24399046.773 6  24399052.039 4  24399051.793 7  24399049.887 8 128217827.097 6  99910034.010 4  99910035.006 7  95747114.515 8        41.600          29.100          44.300          48.700
G11  20454831.383 7  20454832.570 6                                 107490977.220 7  83759122.370 6                                        46.800          39.700
G14  22625980.211 7  22625982.422 5                                 118900325.488 7  92649621.191 5                                        42.400          31.600
G18  20102293.039 8  20102295.164 6                                 105638261.291 8  82315538.272 6                                        50.200          40.900
G22  20844784.039 7  20844783.434 6                                 109540076.386 7  85355865.151 6                                        47.300          40.900
G27  22857306.102 7  22857310.406 5  22857310.477 7  22857309.543 8 120115950.063 7  93596864.115 5  93596864.110 7  89697004.178 8        44.400          35.000          46.300          48.800
G28  23346375.711 7  23346376.711 4                                 122686029.093 7  95599516.609 4                                        42.500          27.400
G32  22888417.492 7  22888421.957 5  22888421.801 7  22888420.625 8 120279441.559 7  93724260.184 5  93724265.184 7  89819078.107 8        45.700          35.600          46.700          50.600
R04  21253603.344 7  21253604.883 7 113812078.408 7  88520512.063 7        47.600          46.500
R06  21930535.703 6                 117025529.315 6                        36.600
R19  21656692.141 7  21656693.152 7 115848688.959 7  90104554.365 7        44.100          43.700
R20  19686250.680 7  19686254.840 8 105271298.413 7  81877620.185 8        43.500          48.900
R21  22184146.867 7  22184150.141 7 118711993.363 7  92331458.861 7        43.500          42.800
> 2018 04 26 21 46 00.0000000  0 21
E01  27728355.484 7  27728358.477 8 145713490.150 7 110231281.584 8        42.300          51.200
E03  25348170.781 7  25348172.926 9 133205535.834 7 100769097.287 9        47.200          55.900
E07  26514146.656 7  26514149.559 8 139332778.646 7 105404315.981 8        43.700          52.500
E08  21920583.195 8  21920584.152 9 115193530.464 8  87143065.575 9        49.700          58.500
E26  24813794.469 7  24813797.934 8 130397366.082 7  98644739.837 8        42.800          52.000
G01  20973870.766 8  20973875.832 6  20973875.395 8  20973874.441 8 110218432.907 8  85884526.562 6  85884522.564 8  82305986.028 8        49.800          40.900          48.700          53.400
G03  22110757.688 7  22110762.840 6  22110763.328 7  22110762.797 8 116192818.539 7  90539867.318 6  90539882.315 7  86767380.706 8        46.600          38.200          47.400          50.200
G08  20564299.609 8  20564303.488 7  20564304.039 8  20564302.449 9 108066115.297 8  84207389.812 7  84207415.813 8  80698738.655 9        51.500          44.300          50.800          54.200
G10  24410650.883 6  24410654.629 4  24410654.230 7  24410652.715 8 128278802.783 6  99957547.540 4  99957548.545 7  95792648.307 8        41.400          29.000          43.400          49.100
G11  20439030.141 8  20439031.445 6                                 107407941.978 8  83694419.593 6                                        48.100          40.000
G14  22611239.039 7  22611241.352 5                                 118822859.344 7  92589257.989 5                                        42.500          31.400
G18  20094064.750 8  20094066.703 6                                 105595021.239 8  82281844.728 6                                        50.600          40.500
G22  20829768.078 7  20829768.188 6                                 109461170.979 7  85294380.428 6                                        47.500          41.700
G27  22868016.914 7  22868020.816 5  22868020.672 7  22868020.188 8 120172233.938 7  93640721.701 5  93640721.704 7  89739034.370 8        44.100          34.200          46.100          49.300
G28  23332710.938 7  23332712.570 4                                 122614219.408 7  95543561.017 4                                        42.200          27.400
G32  22883157.977 7  22883162.207 5  22883162.070 7  22883160.758 8 120251803.653 7  93702724.161 5  93702729.149 7  89798439.429 8        44.900          35.100          47.000          50.200
R04  21264268.602 7  21264269.953 7 113869188.228 7  88564930.812 7        47.000          45.600
R06  21900121.281 5                 116863232.188 5                        35.500
R19  21663262.180 7  21663264.094 7 115883838.337 7  90131892.780 7        43.900          43.800
R20  19674724.797 7  19674729.953 8 105209667.365 7  81829684.932 8        43.900          49.000
R21  22158111.008 7  22158113.328 7 118572663.240 7  92223091.033 7        44.300          43.400
> 2018 04 26 21 46 30.0000000  0 21
E01  27724784.391 6  27724787.219 8 145694722.463 6 110217083.945 8        40.200          50.600
E03  25349176.508 7  25349179.004 9 133210821.684 7 100773096.006 9        47.100          55.700
E07  26489291.469 7  26489294.480 8 139202163.936 7 105305506.821 8        43.600          52.200
E08  21905882.867 8  21905883.621 9 115116278.399 8  87084624.909 9        50.200          58.500
E26  24793570.539 7  24793574.617 8 130291091.567 7  98564343.921 8        42.900          52.000
G01  20958679.461 8  20958684.699 6  20958684.359 8  20958682.840 8 110138601.974 8  85822320.665 6  85822316.654 8  82246372.041 8        51.900          41.700          49.000          53.300
G03  22087205.773 7  22087210.238 6  22087210.164 7  22087210.254 8 116069048.088 7  90443422.842 6  90443437.838 7  86674954.748 8        46.600          37.900          46.900          50.000
G08  20564023.031 8  20564027.301 7  20564027.633 8  20564026.262 9 108064660.606 8  84206256.286 7  84206282.288 8  80697652.366 9        51.000          43.800          50.400          54.300
G10  24422280.109 6  24422284.582 5  24422284.488 7  24422282.430 8 128339917.181 6 100005169.160 5 100005170.160 7  95838285.674 8        40.700          30.300          44.600          49.600
G11  20423312.156 8  20423313.719 6                                 107325345.872 8  83630058.991 6                                        48.200          40.100
G14  22596603.688 7  22596604.488 5                                 118745946.323 7  92529325.763 5                                        45.000          31.000
G18  20085914.336 8  20085916.363 6                                 105552188.599 8  82248468.650 6                                        50.300          41.400
G22  20814849.984 8  20814849.738 6                                 109382774.396 8  85233292.202 6                                        48.500          41.100
G27  22878789.922 7  22878794.148 5  22878794.023 7  22878793.168 8 120228847.315 7  93684836.025 5  93684836.030 7  89781310.594 8        45.000          35.100          46.600          48.700
G28  23319156.117 6  23319157.289 4                                 122542989.666 6  95488057.349 4                                        41.800          26.700
G32  22878022.992 7  22878027.672 5  22878027.617 7  22878026.164 8 120224820.558 7  93681698.368 5  93681703.364 7  89778289.714 8        45.300          35.300          47.000          50.500
R04  21275036.320 7  21275037.977 7 113926845.435 7  88609775.307 7        46.700          45.900
R06  21869780.172 5                 116701336.348 5                        35.700
R19  21669913.781 7  21669915.145 7 115919416.401 7  90159564.582 7        44.100          44.200
R20  19663291.609 7  19663296.000 8 105148529.715 7  81782133.424 8        43.900          48.500
R21  22132098.305 7  22132101.316 7 118433465.286 7  92114825.993 7        44.700          42.800
> 2018 04 26 21 47 00.0000000  0 21
E01  27721302.125 6  27721305.188 8 145676425.057 6 110203242.071 8        41.900          50.500
E03  25350262.125 7  25350264.707 9 133216526.599 7 100777411.749 9        46.800          55.700
E07  26464469.141 7  26464471.984 8 139071721.850 7 105206828.243 8        44.000          52.200
E08  21891269.938 8  21891270.539 9 115039486.984 8  87026532.716 9        49.700          58.500
E26  24773360.953 7  24773364.375 8 130184887.113 7  98484000.990 8        42.800          51.900
G01  20943545.820 8  20943550.602 6  20943550.332 8  20943549.211 8 110059073.438 8  85760350.388 6  85760346.375 8  82186983.866 8        51.300          41.400          48.400          53.100
G03  22063728.102 7  22063732.727 6  22063732.746 7  22063732.684 8 115945673.145 7  90347286.544 6  90347301.540 7  86582824.129 8        46.500          37.900          47.600          50.100
G08  20563852.938 8  20563857.227 7  20563857.438 8  20563856.129 8 108063767.668 8  84205560.482 7  84205586.484 8  80696985.553 8        51.500          44.300          50.600          53.900
G10  24433933.359 6  24433937.906 5  24433937.379 7  24433935.988 8 128401154.930 6 100052886.891 5 100052887.893 7  95884015.182 8        41.200          30.400          45.100          49.100
G11  20407675.922 8  20407677.250 6                                 107243177.043 8  83566031.349 6                                        49.700          39.500
G14  22582070.469 7  22582071.957 5                                 118669574.506 7  92469815.269 5                                        43.000          31.900
G18  20077838.289 8  20077840.273 6                                 105509750.123 8  82215399.723 6                                        50.500          40.600
G22  20800025.797 7  20800025.770 6                                 109304873.241 7  85172590.015 6                                        47.500          40.900
G27  22889623.094 7  22889627.273 5  22889627.031 7  22889626.527 8 120285775.083 7  93729195.329 5  93729195.331 7  89823821.598 8        44.300          34.600          46.100          49.300
G28  23305709.109 6  23305710.910 4                                 122472327.394 6  95432995.862 4                                        41.100          25.600
G32  22873011.063 7  22873015.488 5  22873015.586 7  22873014.215 8 120198478.676 7  93661172.249 5  93661177.245 7  89758618.837 8        46.700          35.700          47.200          50.500
R04  21285901.102 7  21285903.160 7 113985031.997 7  88655031.529 7        46.800          46.000
R06  21839515.836 5                 116539831.406 5                        35.700
R19  21676641.602 7  21676643.672 7 115955408.783 7  90187558.673 7        44.100          45.200
R20  19651949.313 7  19651953.863 8 105087874.039 7  81734956.797 8        43.500          49.000
R21  22106108.000 7  22106110.531 7 118294387.728 7  92006654.604 7        44.000          42.400
> 2018 04 26 21 47 30.0000000  0 21
E01  27717909.508 6  27717912.465 8 145658596.210 6 110189754.660 8        41.800          50.200
E03  25351427.195 7  25351429.469 9 133222648.552 7 100782042.964 9        47.200          55.500
E07  26439679.719 7  26439682.766 8 138941453.401 7 105108281.026 8        43.800          51.800
E08  21876744.680 8  21876745.324 9 114963156.223 8  86968789.000 9        49.400          58.400
E26  24753163.961 7  24753167.492 8 130078752.478 7  98403710.877 8        44.200          51.600
G01  20928469.164 8  20928474.301 6  20928473.918 8  20928472.793 8 109979846.941 8  85698615.466 6  85698611.462 8  82127821.235 8        48.400          41.600          48.500          53.400
G03  22040326.211 7  22040330.227 6  22040330.297 7  22040330.242 8 115822694.361 7  90251458.940 6  90251473.944 7  86490989.354 8        47.000          38.100          47.000          50.000
G08  20563789.703 8  20563793.613 7  20563794.184 8  20563792.691 8 108063435.058 8  84205301.313 7  84205327.321 8  80696737.179 8        51.700          43.800          51.100          53.800
G10  24445608.922 6  24445614.238 5  24445613.645 7  24445611.734 8 128462513.527 6 100100698.762 5 100100699.758 7  95929834.889 8        40.900          30.200          45.600          49.000
G11  20392121.344 7  20392122.621 6                                 107161436.400 7  83502337.352 6                                        46.400          39.200
G14  22567640.398 7  22567642.129 5                                 118593745.278 7  92410727.567 5                                        43.300          32.100
G18  20069837.258 8  20069839.500 6                                 105467705.144 8  82182637.402 6                                        48.800          41.100
G22  20785296.211 8  20785295.563 6                                 109227466.842 8  85112273.351 6                                        49.700          40.900
G27  22900514.828 7  22900519.426 5  22900519.598 7  22900518.855 8 120343014.927 7  93773797.814 5  93773797.802 7  89866565.643 8        43.700          34.200          45.800          49.200
G28  23292371.539 6  23292372.832 4                                 122402232.809 6  95378376.729 4                                        41.900          26.800
G32  22868120.391 7  22868124.781 5  22868124.762 7  22868123.215 8 120172777.175 7  93641145.104 5  93641150.100 7  89739426.166 8        45.100          34.800          47.500          50.200
R04  21296866.078 7  21296867.203 7 114043743.440 7  88700695.978 7        46.600          46.300
R06  21809324.875 6                 116378719.914 6                        37.000
R19  21683448.047 7  21683449.359 7 115991814.779 7  90215874.436 7        44.100          43.900
R20  19640696.211 7  19640701.027 8 105027701.052 7  81688155.587 8        45.200          49.400
R21  22080139.125 7  22080143.379 7 118155431.776 7  91898577.803 7        44.500          42.500
> 2018 04 26 21 48 00.0000000  0 21
E01  27714604.273 6  27714607.168 8 145641226.224 6 110176614.378 8        41.300          50.600
E03  25352669.266 7  25352671.910 9 133229177.427 7 100786982.022 9        46.300          55.500
E07  26414922.328 7  26414924.906 8 138811351.379 7 105009859.703 8        44.000          52.100
E08  21862305.586 8  21862306.242 9 114887278.034 8  86911387.654 9        50.000          58.500
E26  24732979.016 7  24732982.582 8 129972679.394 7  98323467.320 8        43.000          51.700
G01  20913448.641 8  20913454.020 6  20913453.840 8  20913452.336 8 109900913.954 8  85637109.255 6  85637105.251 8  82068877.787 8        50.800          41.500          49.500          53.700
G03  22016997.508 7  22017002.031 6  22017002.008 7  22017002.105 8 115700104.257 7  90155934.210 6  90155949.207 7  86399444.816 8        46.400          37.800          47.400          50.300
G08  20563830.945 8  20563835.395 7  20563835.758 8  20563834.180 8 108063653.806 8  84205471.758 7  84205497.760 8  80696900.523 8        51.700          43.900          50.400          53.800
G10  24457306.398 6  24457311.059 4  24457310.930 7  24457309.551 8 128523982.276 6 100148596.482 4 100148597.479 7  95975736.880 8        40.500          29.700          45.900          48.800
G11  20376646.680 7  20376648.063 6                                 107080116.418 7  83438971.143 6                                        47.300          38.900
G14  22553311.875 7  22553314.492 5                                 118518451.614 7  92352057.204 5                                        45.100          31.200
G18  20061909.703 8  20061911.766 6                                 105426045.099 8  82150175.027 6                                        48.900          41.100
G22  20770658.203 8  20770657.910 6                                 109150546.699 8  85052335.587 6                                        50.000          40.900
G27  22911464.891 7  22911469.137 5  22911469.219 7  22911468.688 8 120400556.384 7  93818635.304 5  93818635.291 7  89909534.906 8        43.900          33.100          45.700          49.400
G28  23279138.164 6  23279140.145 4                                 122332697.822 6  95324193.642 4                                        41.400          26.000
G32  22863349.648 7  22863353.496 5  22863353.500 7  22863352.398 8 120147707.149 7  93621610.017 5  93621615.013 7  89720705.046 8        45.100          35.200          46.600          50.500
R04  21307924.703 7  21307926.762 7 114102966.676 7  88746758.493 7        45.900          46.200
R06  21779205.703 6                 116217996.478 6                        36.500
R19  21690329.172 7  21690330.395 7 116028625.066 7  90244504.650 7        44.500          44.600
R20  19629532.430 7  19629537.660 8 104968004.138 7  81641724.665 8        43.200          48.500
R21  22054193.523 7  22054197.371 7 118016590.648 7  91790590.300 7        44.900          42.500
> 2018 04 26 21 48 30.0000000  0 21
E01  27711383.117 6  27711386.566 8 145624301.781 6 110163811.131 8        41.200          50.600
E03  25353986.883 7  25353988.988 9 133236099.645 7 100792218.640 9        47.400          55.500
E07  26390194.203 7  26390196.980 8 138681405.101 7 104911556.194 8        43.600          51.300
E08  21847950.297 8  21847950.922 9 114811840.854 8  86854319.930 9        49.900          58.400
E26  24712803.383 7  24712806.883 8 129866656.060 7  98243261.412 8        43.600          51.900
G01  20898482.344 8  20898486.949 6  20898486.699 8  20898485.383 8 109822262.524 8  85575822.428 6  85575818.424 8  82010144.587 8        48.700          41.600          48.700          53.000
G03  21993741.359 7  21993745.867 6  21993746.406 7  21993746.000 8 115577891.790 7  90060703.729 6  90060718.718 7  86308182.276 8        47.100          37.600          47.300          50.800
G08  20563975.555 8  20563979.711 7  20563980.156 8  20563978.613 9 108064411.155 8  84206061.909 7  84206087.911 8  80697466.080 9        51.800          44.000          50.800          54.100
G10  24469021.313 6  24469026.500 4  24469026.453 7  24469024.055 8 128585547.098 6 100196569.079 4 100196570.068 7  96021710.604 8        39.500          28.400          46.100          48.500
G11  20361249.930 8  20361251.254 6                                 106999206.464 8  83375924.431 6                                        48.800          39.800
G14  22539084.250 7  22539086.043 5                                 118443683.018 7  92293795.975 5                                        42.300          30.400
G18  20054053.008 8  20054054.879 6                                 105384757.724 8  82118003.054 6                                        49.600          41.000
G22  20756110.828 7  20756110.813 6                                 109074100.495 7  84992767.134 6                                        46.600          40.800
G27  22922470.016 7  22922473.184 5  22922473.098 7  22922472.969 8 120458385.525 7  93863696.992 5  93863696.990 7  89952719.021 8        43.900          33.400          44.900          50.500
G28  23266011.195 7  23266012.453 4                                 122263710.999 7  95270437.686 4                                        42.100          26.800
G32  22858696.211 7  22858700.676 5  22858700.633 7  22858699.461 8 120123256.080 7  93602557.255 5  93602562.259 7  89702446.149 8        44.500          35.500          46.600          50.000
R04  21319076.305 7  21319078.637 7 114162685.386 7  88793206.377 7        46.600          45.600
R06  21749157.016 6                 116057651.669 6                        36.000
R19  21697282.914 7  21697285.398 7 116065826.626 7  90273439.204 7        43.900          44.500
R20  19618456.352 7  19618460.922 8 104908772.891 7  81595655.921 8        43.800          49.000
R21  22028268.555 7  22028271.227 7 117877853.750 7  91682683.866 7        45.700          43.200
> 2018 04 26 21 49 00.0000000  0 21
E01  27708248.891 7  27708251.453 8 145607827.476 7 110151348.443 8        42.400          50.200
E03  25355379.633 7  25355382.191 9 133243419.391 7 100797755.998 9        47.600          55.600
E07  26365497.477 7  26365499.992 8 138551621.754 7 104813375.949 8        44.200          51.800
E08  21833680.102 8  21833680.688 9 114736850.887 8  86797590.515 9        50.300          58.400
E26  24692638.180 7  24692641.988 8 129760688.505 7  98163097.695 8        44.500          51.800
G01  20883569.781 8  20883575.203 6  20883574.859 8  20883573.227 8 109743898.584 8  85514759.640 6  85514755.644 8  81951626.075 8        51.500          41.800          49.600          53.000
G03  21970558.586 7  21970562.930 6  21970563.262 7  21970563.063 8 115456063.768 7  89965772.823 6  89965787.813 7  86217206.834 8        46.400          38.100          47.000          51.000
G08  20564223.086 8  20564227.219 7  20564227.535 8  20564226.004 9 108065712.360 8  84207075.827 7  84207101.828 8  80698437.753 9        51.300          43.800          51.100          54.100
G10  24480755.453 6  24480761.520 4  24480760.879 7  24480758.547 8 128647211.705 6 100244619.408 4 100244620.397 7  96067758.841 8        39.400          29.100          46.300          48.400
G11  20345932.711 8  20345933.977 6                                 106918713.407 8  83313202.587 6                                        48.800          39.700
G14  22524957.930 7  22524959.250 5                                 118369446.622 7  92235949.438 5                                        43.200          30.800
G18  20046268.570 8  20046270.211 6                                 105343849.039 8  82086126.160 6                                        49.000          40.900
G22  20741655.516 7  20741654.633 6                                 108998134.021 7  84933572.499 6                                        47.500          41.100
G27  22933529.484 7  22933533.559 5  22933533.301 7  22933533.047 8 120516506.271 7  93908985.890 5  93908985.892 7  89996120.881 8        44.500          33.700          45.600          50.200
G28  23252988.555 7  23252990.133 4                                 122195278.636 7  95217113.780 4                                        42.500          27.800
G32  22854162.750 7  22854167.160 5  22854167.129 7  22854165.594 8 120099429.345 7  93583990.969 5  93583995.964 7  89684653.461 8        45.600          35.500          46.900          50.100
R04  21330322.859 7  21330323.727 7 114222900.936 7  88840040.692 7        46.400          46.600
R06  21719180.164 6                 115897694.954 6                        36.900
R19  21704312.430 7  21704313.559 7 116103424.834 7  90302682.246 7        44.500          45.100
R20  19607467.023 7  19607472.863 8 104850014.844 7  81549955.221 8        43.500          48.000
R21  22002362.945 7  22002365.738 7 117739228.770 7  91574864.459 7        45.100          43.100
> 2018 04 26 21 49 30.0000000  0 21
E01  27705195.789 6  27705198.441 8 145591783.933 6 110139211.607 8        40.800          50.100
E03  25356844.445 7  25356846.863 9 133251116.967 7 100803579.171 9        46.500          55.500
E07  26340828.289 7  26340831.008 8 138421984.534 7 104715306.246 8        43.500          51.200
E08  21819491.750 8  21819492.441 9 114662290.457 8  86741186.051 9        50.000          58.400
E26  24672480.516 7  24672483.906 8 129654758.915 7  98082962.684 8        43.700          51.300
G01  20868709.195 8  20868713.801 6  20868713.871 8  20868712.234 8 109665804.051 8  85453906.773 6  85453902.769 8  81893308.753 8        49.300          41.300          49.200          53.400
G03  21947444.977 7  21947449.996 6  21947450.219 7  21947449.895 8 115334603.129 7  89871128.185 6  89871143.182 7  86126505.723 8        47.500          37.600          47.100          50.700
G08  20564570.430 8  20564574.699 7  20564575.055 8  20564573.543 8 108067538.250 8  84208498.603 7  84208524.604 8  80699801.251 8        52.100          43.800          50.300          53.600
G10  24492505.727 6  24492510.645 4  24492510.063 7  24492508.316 7 128708955.873 6 100292731.739 4 100292732.740 7  96113866.511 7        39.300          28.400          44.900          47.300
G11  20330691.648 7  20330692.992 6                                 106838620.424 7  83250792.481 6                                        46.500          40.100
G14  22510929.180 7  22510931.324 5                                 118295725.743 7  92178504.614 5                                        44.300          31.700
G18  20038552.281 8  20038554.285 6                                 105303300.344 8  82054529.779 6                                        49.700          41.200
G22  20727287.500 8  20727286.898 6                                 108922628.805 8  84874737.273 6                                        49.100          40.800
G27  22944641.273 7  22944644.969 5  22944645.379 7  22944645.277 8 120574898.541 7  93954486.371 5  93954486.378 7  90039725.520 8        43.000          33.100          44.600          50.300
G28  23240068.758 6  23240069.789 4                                 122127383.420 6  95164208.428 4                                        41.200          27.000
G32  22849743.961 7  22849748.449 5  22849748.012 7  22849746.590 8 120076208.335 7  93565896.686 5  93565901.677 7  89667313.108 8        44.600          35.400          46.800          50.000
R04  21341655.234 7  21341657.066 7 114283590.761 7  88887243.879 7        46.300          46.000
R06  21689273.406 6                 115738111.104 6                        36.900
R19  21711411.547 7  21711412.461 7 116141400.498 7  90332218.877 7        43.900          43.600
R20  19596565.852 7  19596569.887 8 104791713.523 7  81504609.755 8        43.800          49.000
R21  21976476.141 7  21976478.199 7 117600699.001 7  91467119.123 7        46.100          42.700
> 2018 04 26 21 50 00.0000000  0 21
E01  27702225.430 6  27702227.824 8 145576173.387 6 110127402.334 8        41.900          50.200
E03  25358381.133 7  25358384.031 9 133259194.282 7 100809689.607 9        46.300          55.500
E07  26316187.922 7  26316190.496 8 138292498.374 7 104617350.819 8        43.700          51.800
E08  21805385.852 8  21805386.387 9 114588163.479 8  86685109.479 9        49.800          58.300
E26  24652329.984 7  24652333.988 8 129548871.045 7  98002859.246 8        42.800          51.200
G01  20853900.313 8  20853905.176 6  20853904.766 8  20853903.551 8 109587982.572 8  85393266.665 6  85393262.668 8  81835195.323 8        49.200          41.800          48.200          53.000
G03  21924402.773 8  21924407.418 6  21924407.359 7  21924407.492 8 115213514.339 8  89776773.313 6  89776788.309 7  86036082.308 8        48.200          38.100          47.000          51.300
G08  20565018.578 8  20565022.414 7  20565022.691 8  20565021.082 8 108069891.908 8  84210332.620 7  84210358.615 8  80701558.841 8        52.100          43.800          50.800          53.900
G10  24504270.602 6  24504275.836 4  24504275.344 7  24504273.566 7 128770781.094 6 100340907.231 4 100340908.229 7  96160034.713 7        38.100          26.300          45.100          47.000
G11  20315527.398 7  20315528.422 6                                 106758932.353 7  83188697.896 6                                        46.200          39.500
G14  22496999.078 7  22497001.199 5                                 118222525.688 7  92121465.635 5                                        43.900          31.700
G18  20030905.203 8  20030907.082 6                                 105263115.305 8  82023216.769 6                                        49.100          40.600
G22  20713007.727 8  20713006.945 6                                 108847588.036 8  84816263.961 6                                        48.300          40.500
G27  22955804.617 7  22955808.301 5  22955808.754 7  22955807.969 8 120633564.011 7  94000199.728 5  94000199.726 7  90083534.126 8        44.000          32.800          45.500          50.000
G28  23227251.141 6  23227253.215 4                                 122060029.097 6  95111724.539 4                                        41.300          27.100
G32  22845440.758 7  22845444.801 5  22845445.051 7  22845443.234 8 120053596.044 7  93548276.727 5  93548281.738 7  89650427.311 8        44.600          35.500          47.700          49.800
R04  21353077.039 7  21353078.840 7 114344754.024 7  88934815.311 7        45.800          45.700
R06  21659440.258 6                 115578906.567 6                        37.700
R19  21718581.117 7  21718582.902 7 116179756.857 7  90362051.609 7        43.900          43.700
R20  19585748.570 7  19585754.039 8 104733873.596 7  81459623.154 8        44.400          48.800
R21  21950606.539 7  21950609.727 7 117462269.891 7  91359452.077 7        45.600          42.700
> 2018 04 26 21 50 30.0000000  0 21
E01  27699335.125 6  27699337.727 8 145560984.865 6 110115912.298 8        40.500          50.300
E03  25359988.648 7  25359991.023 9 133267640.010 7 100816078.743 9        47.000          55.400
E07  26291574.250 7  26291577.332 8 138163154.838 7 104519503.283 8        44.000          51.700
E08  21791360.609 8  21791361.348 9 114514460.597 8  86629353.744 9        50.100          58.300
E26  24632187.219 7  24632190.391 8 129443015.450 7  97922780.221 8        44.000          51.300
G01  20839141.469 8  20839146.508 6  20839146.168 8  20839144.648 8 109510424.488 8  85332831.806 6  85332827.802 8  81777278.581 8        49.000          41.800          49.300          53.700
G03  21901429.141 8  21901433.707 6  21901433.723 7  21901433.902 8 115092788.672 8  89682701.373 6  89682716.368 7  85945930.044 8        48.100          38.300          47.200          51.000
G08  20565564.367 8  20565569.078 7  20565569.477 8  20565567.926 9 108072762.847 8  84212569.708 7  84212595.709 8  80703702.729 9        52.400          44.300          50.500          54.100
G10  24516049.406 5  24516053.078 4  24516052.496 7  24516051.043 7 128832675.595 5 100389136.703 4 100389137.708 7  96206254.629 7        35.500          24.000          44.300          46.800
G11  20300438.797 8  20300439.773 6                                 106679640.188 8  83126911.815 6                                        48.600          39.400
G14  22483166.961 7  22483169.086 5                                 118149837.930 7  92064825.828 5                                        43.800          31.400
G18  20023325.633 8  20023327.605 6                                 105223284.114 8  81992179.479 6                                        48.600          41.000
